10:15:30.000 $GPRMC,101530.00,A,4655.2120,N,01753.3960,E,5.7,359.7,280526,5.7,E,A*3F
10:15:30.320 $GPGGA,101530.00,4655.2120,N,01753.3960,E,1,08,1.0,104.0,M,40.0,M,,*6D
10:15:30.640 $GPGLL,4655.2120,N,01753.3960,E,101530.00,A,A*60
10:15:30.960 $GPVTG,359.7,T,354.0,M,5.7,N,10.6,K,A*1C
10:15:31.280 $IIHDG,352.0,,,5.7,E*24
10:15:31.600 $WIMWV,30.0,R,16.0,N,A*27
10:15:31.920 $WIMWV,42.0,T,12.0,N,A*20
10:15:32.240 $WIMWD,35.0,T,29.3,M,12.0,N,6.2,M*63
10:15:32.560 $SDVHW,357.7,T,352.0,M,6.0,N,11.1,K*77
10:15:33.500 $GPRMC,101533.00,A,4655.2240,N,01753.3920,E,5.9,1.7,280526,5.7,E,A*3D
10:15:33.820 $GPGGA,101533.00,4655.2240,N,01753.3920,E,1,08,1.0,104.0,M,40.0,M,,*6F
10:15:34.140 $GPGLL,4655.2240,N,01753.3920,E,101533.00,A,A*62
10:15:34.460 $GPVTG,1.7,T,356.0,M,5.9,N,10.9,K,A*11
10:15:34.780 $IIHDG,354.0,,,5.7,E*22
10:15:35.100 $WIMWV,30.0,R,16.3,N,A*24
10:15:35.420 $WIMWV,42.0,T,12.2,N,A*22
10:15:35.740 $WIMWD,35.3,T,29.6,M,12.2,N,6.3,M*66
10:15:36.060 $SDVHW,359.7,T,354.0,M,6.0,N,11.1,K*7F
10:15:37.000 $GPRMC,101537.00,A,4655.2360,N,01753.3880,E,5.7,359.7,280526,5.7,E,A*31
10:15:37.320 $GPGGA,101537.00,4655.2360,N,01753.3880,E,1,08,1.0,104.0,M,40.0,M,,*63
10:15:37.640 $GPGLL,4655.2360,N,01753.3880,E,101537.00,A,A*6E
10:15:37.960 $GPVTG,359.7,T,354.0,M,5.7,N,10.6,K,A*1C
10:15:38.280 $IIHDG,352.0,,,5.7,E*24
10:15:38.600 $WIMWV,30.0,R,16.0,N,A*27
10:15:38.920 $WIMWV,42.0,T,12.4,N,A*24
10:15:39.240 $WIMWD,35.6,T,29.9,M,12.4,N,6.4,M*6D
10:15:39.560 $SDVHW,357.7,T,352.0,M,6.0,N,11.1,K*77
10:15:40.500 $GPRMC,101540.00,A,4655.2480,N,01753.3840,E,5.9,1.7,280526,5.7,E,A*34
10:15:40.820 $GPGGA,101540.00,4655.2480,N,01753.3840,E,1,08,1.0,104.0,M,40.0,M,,*66
10:15:41.140 $GPGLL,4655.2480,N,01753.3840,E,101540.00,A,A*6B
10:15:41.460 $GPVTG,1.7,T,356.0,M,5.9,N,10.9,K,A*11
10:15:41.780 $IIHDG,354.0,,,5.7,E*22
10:15:42.100 $WIMWV,30.0,R,16.3,N,A*24
10:15:42.420 $WIMWV,42.0,T,12.0,N,A*20
10:15:42.740 $WIMWD,35.9,T,30.2,M,12.0,N,6.2,M*63
10:15:43.060 $SDVHW,359.7,T,354.0,M,6.0,N,11.1,K*7F
10:15:44.000 $GPRMC,101544.00,A,4655.2600,N,01753.3800,E,5.7,359.7,280526,5.7,E,A*3E
10:15:44.320 $GPGGA,101544.00,4655.2600,N,01753.3800,E,1,08,1.0,104.0,M,40.0,M,,*6C
10:15:44.640 $GPGLL,4655.2600,N,01753.3800,E,101544.00,A,A*61
10:15:44.960 $GPVTG,359.7,T,354.0,M,5.7,N,10.6,K,A*1C
10:15:45.280 $IIHDG,352.0,,,5.7,E*24
10:15:45.600 $WIMWV,30.0,R,16.0,N,A*27
10:15:45.920 $WIMWV,42.0,T,12.2,N,A*22
10:15:46.240 $WIMWD,36.2,T,30.5,M,12.2,N,6.3,M*6F
10:15:46.560 $SDVHW,357.7,T,352.0,M,6.0,N,11.1,K*77
10:15:47.500 $GPRMC,101547.00,A,4655.2720,N,01753.3760,E,5.9,1.7,280526,5.7,E,A*37
10:15:47.820 $GPGGA,101547.00,4655.2720,N,01753.3760,E,1,08,1.0,104.0,M,40.0,M,,*65
10:15:48.140 $GPGLL,4655.2720,N,01753.3760,E,101547.00,A,A*68
10:15:48.460 $GPVTG,1.7,T,356.0,M,5.9,N,10.9,K,A*11
10:15:48.780 $IIHDG,354.0,,,5.7,E*22
10:15:49.100 $WIMWV,30.0,R,16.3,N,A*24
10:15:49.420 $WIMWV,42.0,T,12.4,N,A*24
10:15:49.740 $WIMWD,36.5,T,30.8,M,12.4,N,6.4,M*64
10:15:50.060 $SDVHW,359.7,T,354.0,M,6.0,N,11.1,K*7F
10:15:51.000 $GPRMC,101551.00,A,4655.2840,N,01753.3720,E,5.7,359.7,280526,5.7,E,A*3D
10:15:51.320 $GPGGA,101551.00,4655.2840,N,01753.3720,E,1,08,1.0,104.0,M,40.0,M,,*6F
10:15:51.640 $GPGLL,4655.2840,N,01753.3720,E,101551.00,A,A*62
10:15:51.960 $GPVTG,359.7,T,354.0,M,5.7,N,10.6,K,A*1C
10:15:52.280 $IIHDG,352.0,,,5.7,E*24
10:15:52.600 $WIMWV,30.0,R,16.0,N,A*27
10:15:52.920 $WIMWV,42.0,T,12.0,N,A*20
10:15:53.240 $WIMWD,36.8,T,31.1,M,12.0,N,6.2,M*63
10:15:53.560 $SDVHW,357.7,T,352.0,M,6.0,N,11.1,K*77
10:15:54.500 $GPRMC,101554.00,A,4655.2960,N,01753.3680,E,5.9,1.7,280526,5.7,E,A*30
10:15:54.820 $GPGGA,101554.00,4655.2960,N,01753.3680,E,1,08,1.0,104.0,M,40.0,M,,*62
10:15:55.140 $GPGLL,4655.2960,N,01753.3680,E,101554.00,A,A*6F
10:15:55.460 $GPVTG,1.7,T,356.0,M,5.9,N,10.9,K,A*11
10:15:55.780 $IIHDG,354.0,,,5.7,E*22
10:15:56.100 $WIMWV,30.0,R,16.3,N,A*24
10:15:56.420 $WIMWV,42.0,T,12.2,N,A*22
10:15:56.740 $WIMWD,37.1,T,31.4,M,12.2,N,6.3,M*6D
10:15:57.060 $SDVHW,359.7,T,354.0,M,6.0,N,11.1,K*7F
