10:00:00.000 $GPRMC,100000,A,4735.0191,N,01851.3064,E,5.0,0.0,040626,5.7,E,A*1B
10:00:00.005 $GPGGA,100000,4735.0191,N,01851.3064,E,1,10,0.9,105.0,M,40.0,M,,*4B
10:00:00.010 $GPGLL,4735.0191,N,01851.3064,E,100000,A,A*46
10:00:00.015 $GPVTG,0.0,T,354.3,M,5.0,N,9.3,K,A*2D
10:00:00.020 $IIHDG,354.3,,,5.7,E*21
10:00:00.025 $WIMWV,35.0,R,9.1,N,A*1D
10:00:00.030 $WIMWV,35.0,T,8.1,N,A*1A
10:00:00.035 $WIMWD,35.0,T,29.3,M,8.1,N,4.2,M*5B
10:00:00.040 $IIVHW,0.0,T,354.3,M,5.0,N,9.3,K*5B
10:00:01.000 $GPRMC,100001,A,4735.0204,N,01851.3064,E,5.0,0.0,040626,5.7,E,A*15
10:00:01.005 $GPGGA,100001,4735.0204,N,01851.3064,E,1,10,0.9,105.0,M,40.0,M,,*45
10:00:01.010 $GPGLL,4735.0204,N,01851.3064,E,100001,A,A*48
10:00:01.015 $GPVTG,0.0,T,354.3,M,5.0,N,9.3,K,A*2D
10:00:01.020 $IIHDG,354.3,,,5.7,E*21
10:00:01.025 $WIMWV,35.0,R,9.1,N,A*1D
10:00:01.030 $WIMWV,35.0,T,8.1,N,A*1A
10:00:01.035 $WIMWD,35.0,T,29.3,M,8.1,N,4.2,M*5B
10:00:01.040 $IIVHW,0.0,T,354.3,M,5.0,N,9.3,K*5B
10:00:02.000 $GPRMC,100002,A,4735.0218,N,01851.3064,E,5.0,0.0,040626,5.7,E,A*1B
10:00:02.005 $GPGGA,100002,4735.0218,N,01851.3064,E,1,10,0.9,105.0,M,40.0,M,,*4B
10:00:02.010 $GPGLL,4735.0218,N,01851.3064,E,100002,A,A*46
10:00:02.015 $GPVTG,0.0,T,354.3,M,5.0,N,9.3,K,A*2D
10:00:02.020 $IIHDG,354.3,,,5.7,E*21
10:00:02.025 $WIMWV,35.0,R,9.1,N,A*1D
10:00:02.030 $WIMWV,35.0,T,8.1,N,A*1A
10:00:02.035 $WIMWD,35.0,T,29.3,M,8.1,N,4.2,M*5B
10:00:02.040 $IIVHW,0.0,T,354.3,M,5.0,N,9.3,K*5B
10:00:03.000 $GPRMC,100003,A,4735.0232,N,01851.3064,E,5.0,0.0,040626,5.7,E,A*12
10:00:03.005 $GPGGA,100003,4735.0232,N,01851.3064,E,1,10,0.9,105.0,M,40.0,M,,*42
10:00:03.010 $GPGLL,4735.0232,N,01851.3064,E,100003,A,A*4F
10:00:03.015 $GPVTG,0.0,T,354.3,M,5.0,N,9.3,K,A*2D
10:00:03.020 $IIHDG,354.3,,,5.7,E*21
10:00:03.025 $WIMWV,35.1,R,9.1,N,A*1C
10:00:03.030 $WIMWV,35.1,T,8.1,N,A*1B
10:00:03.035 $WIMWD,35.1,T,29.4,M,8.1,N,4.2,M*5D
10:00:03.040 $IIVHW,0.0,T,354.3,M,5.0,N,9.3,K*5B
10:00:04.000 $GPRMC,100004,A,4735.0246,N,01851.3064,E,5.0,0.0,040626,5.7,E,A*16
10:00:04.005 $GPGGA,100004,4735.0246,N,01851.3064,E,1,10,0.9,105.0,M,40.0,M,,*46
10:00:04.010 $GPGLL,4735.0246,N,01851.3064,E,100004,A,A*4B
10:00:04.015 $GPVTG,0.0,T,354.3,M,5.0,N,9.3,K,A*2D
10:00:04.020 $IIHDG,354.3,,,5.7,E*21
10:00:04.025 $WIMWV,35.1,R,9.1,N,A*1C
10:00:04.030 $WIMWV,35.1,T,8.1,N,A*1B
10:00:04.035 $WIMWD,35.1,T,29.4,M,8.1,N,4.2,M*5D
10:00:04.040 $IIVHW,0.0,T,354.3,M,5.0,N,9.3,K*5B
10:00:05.000 $GPRMC,100005,A,4735.0260,N,01851.3064,E,5.0,0.0,040626,5.7,E,A*13
10:00:05.005 $GPGGA,100005,4735.0260,N,01851.3064,E,1,10,0.9,105.0,M,40.0,M,,*43
10:00:05.010 $GPGLL,4735.0260,N,01851.3064,E,100005,A,A*4E
10:00:05.015 $GPVTG,0.0,T,354.3,M,5.0,N,9.3,K,A*2D
10:00:05.020 $IIHDG,354.3,,,5.7,E*21
10:00:05.025 $WIMWV,35.1,R,9.1,N,A*1C
10:00:05.030 $WIMWV,35.1,T,8.1,N,A*1B
10:00:05.035 $WIMWD,35.1,T,29.4,M,8.1,N,4.2,M*5D
10:00:05.040 $IIVHW,0.0,T,354.3,M,5.0,N,9.3,K*5B
10:00:06.000 $GPRMC,100006,A,4735.0274,N,01851.3064,E,5.0,0.0,040626,5.7,E,A*15
10:00:06.005 $GPGGA,100006,4735.0274,N,01851.3064,E,1,10,0.9,105.0,M,40.0,M,,*45
10:00:06.010 $GPGLL,4735.0274,N,01851.3064,E,100006,A,A*48
10:00:06.015 $GPVTG,0.0,T,354.3,M,5.0,N,9.3,K,A*2D
10:00:06.020 $IIHDG,354.3,,,5.7,E*21
10:00:06.025 $WIMWV,35.1,R,9.1,N,A*1C
10:00:06.030 $WIMWV,35.1,T,8.1,N,A*1B
10:00:06.035 $WIMWD,35.1,T,29.4,M,8.1,N,4.2,M*5D
10:00:06.040 $IIVHW,0.0,T,354.3,M,5.0,N,9.3,K*5B
10:00:07.000 $GPRMC,100007,A,4735.0288,N,01851.3064,E,5.0,0.0,040626,5.7,E,A*17
10:00:07.005 $GPGGA,100007,4735.0288,N,01851.3064,E,1,10,0.9,105.0,M,40.0,M,,*47
10:00:07.010 $GPGLL,4735.0288,N,01851.3064,E,100007,A,A*4A
10:00:07.015 $GPVTG,0.0,T,354.3,M,5.0,N,9.3,K,A*2D
10:00:07.020 $IIHDG,354.3,,,5.7,E*21
10:00:07.025 $WIMWV,35.1,R,9.1,N,A*1C
10:00:07.030 $WIMWV,35.1,T,8.1,N,A*1B
10:00:07.035 $WIMWD,35.1,T,29.4,M,8.1,N,4.2,M*5D
10:00:07.040 $IIVHW,0.0,T,354.3,M,5.0,N,9.3,K*5B
10:00:08.000 $GPRMC,100008,A,4735.0302,N,01851.3064,E,5.0,0.0,040626,5.7,E,A*1B
10:00:08.005 $GPGGA,100008,4735.0302,N,01851.3064,E,1,10,0.9,105.0,M,40.0,M,,*4B
10:00:08.010 $GPGLL,4735.0302,N,01851.3064,E,100008,A,A*46
10:00:08.015 $GPVTG,0.0,T,354.3,M,5.0,N,9.3,K,A*2D
10:00:08.020 $IIHDG,354.3,,,5.7,E*21
10:00:08.025 $WIMWV,35.2,R,9.1,N,A*1F
10:00:08.030 $WIMWV,35.2,T,8.1,N,A*18
10:00:08.035 $WIMWD,35.2,T,29.5,M,8.1,N,4.2,M*5F
10:00:08.040 $IIVHW,0.0,T,354.3,M,5.0,N,9.3,K*5B
10:00:09.000 $GPRMC,100009,A,4735.0316,N,01851.3064,E,5.0,0.0,040626,5.7,E,A*1F
10:00:09.005 $GPGGA,100009,4735.0316,N,01851.3064,E,1,10,0.9,105.0,M,40.0,M,,*4F
10:00:09.010 $GPGLL,4735.0316,N,01851.3064,E,100009,A,A*42
10:00:09.015 $GPVTG,0.0,T,354.3,M,5.0,N,9.3,K,A*2D
10:00:09.020 $IIHDG,354.3,,,5.7,E*21
10:00:09.025 $WIMWV,35.2,R,9.1,N,A*1F
10:00:09.030 $WIMWV,35.2,T,8.1,N,A*18
10:00:09.035 $WIMWD,35.2,T,29.5,M,8.1,N,4.2,M*5F
10:00:09.040 $IIVHW,0.0,T,354.3,M,5.0,N,9.3,K*5B
10:00:10.000 $GPRMC,100010,A,4735.0329,N,01851.3064,E,5.0,0.0,040626,5.7,E,A*1B
10:00:10.005 $GPGGA,100010,4735.0329,N,01851.3064,E,1,10,0.9,105.0,M,40.0,M,,*4B
10:00:10.010 $GPGLL,4735.0329,N,01851.3064,E,100010,A,A*46
10:00:10.015 $GPVTG,0.0,T,354.3,M,5.0,N,9.3,K,A*2D
10:00:10.020 $IIHDG,354.3,,,5.7,E*21
10:00:10.025 $WIMWV,35.2,R,9.1,N,A*1F
10:00:10.030 $WIMWV,35.2,T,8.1,N,A*18
10:00:10.035 $WIMWD,35.2,T,29.5,M,8.1,N,4.2,M*5F
10:00:10.040 $IIVHW,0.0,T,354.3,M,5.0,N,9.3,K*5B
10:00:11.000 $GPRMC,100011,A,4735.0343,N,01851.3064,E,5.0,0.0,040626,5.7,E,A*16
10:00:11.005 $GPGGA,100011,4735.0343,N,01851.3064,E,1,10,0.9,105.0,M,40.0,M,,*46
10:00:11.010 $GPGLL,4735.0343,N,01851.3064,E,100011,A,A*4B
10:00:11.015 $GPVTG,0.0,T,354.3,M,5.0,N,9.3,K,A*2D
10:00:11.020 $IIHDG,354.3,,,5.7,E*21
10:00:11.025 $WIMWV,35.2,R,9.1,N,A*1F
10:00:11.030 $WIMWV,35.2,T,8.1,N,A*18
10:00:11.035 $WIMWD,35.2,T,29.5,M,8.1,N,4.2,M*5F
10:00:11.040 $IIVHW,0.0,T,354.3,M,5.0,N,9.3,K*5B
10:00:12.000 $GPRMC,100012,A,4735.0357,N,01851.3064,E,5.0,0.0,040626,5.7,E,A*10
10:00:12.005 $GPGGA,100012,4735.0357,N,01851.3064,E,1,10,0.9,105.0,M,40.0,M,,*40
10:00:12.010 $GPGLL,4735.0357,N,01851.3064,E,100012,A,A*4D
10:00:12.015 $GPVTG,0.0,T,354.3,M,5.0,N,9.3,K,A*2D
10:00:12.020 $IIHDG,354.3,,,5.7,E*21
10:00:12.025 $WIMWV,35.2,R,9.1,N,A*1F
10:00:12.030 $WIMWV,35.2,T,8.1,N,A*18
10:00:12.035 $WIMWD,35.2,T,29.5,M,8.1,N,4.2,M*5F
10:00:12.040 $IIVHW,0.0,T,354.3,M,5.0,N,9.3,K*5B
10:00:13.000 $GPRMC,100013,A,4735.0371,N,01851.3064,E,5.0,0.0,040626,5.7,E,A*15
10:00:13.005 $GPGGA,100013,4735.0371,N,01851.3064,E,1,10,0.9,105.0,M,40.0,M,,*45
10:00:13.010 $GPGLL,4735.0371,N,01851.3064,E,100013,A,A*48
10:00:13.015 $GPVTG,0.0,T,354.3,M,5.0,N,9.3,K,A*2D
10:00:13.020 $IIHDG,354.3,,,5.7,E*21
10:00:13.025 $WIMWV,35.2,R,9.1,N,A*1F
10:00:13.030 $WIMWV,35.2,T,8.1,N,A*18
10:00:13.035 $WIMWD,35.2,T,29.5,M,8.1,N,4.2,M*5F
10:00:13.040 $IIVHW,0.0,T,354.3,M,5.0,N,9.3,K*5B
10:00:14.000 $GPRMC,100014,A,4735.0385,N,01851.3064,E,5.0,0.0,040626,5.7,E,A*19
10:00:14.005 $GPGGA,100014,4735.0385,N,01851.3064,E,1,10,0.9,105.0,M,40.0,M,,*49
10:00:14.010 $GPGLL,4735.0385,N,01851.3064,E,100014,A,A*44
10:00:14.015 $GPVTG,0.0,T,354.3,M,5.0,N,9.3,K,A*2D
10:00:14.020 $IIHDG,354.3,,,5.7,E*21
10:00:14.025 $WIMWV,35.3,R,9.1,N,A*1E
10:00:14.030 $WIMWV,35.3,T,8.1,N,A*19
10:00:14.035 $WIMWD,35.3,T,29.6,M,8.1,N,4.2,M*5D
10:00:14.040 $IIVHW,0.0,T,354.3,M,5.0,N,9.3,K*5B
10:00:15.000 $GPRMC,100015,A,4735.0399,N,01851.3064,E,5.0,0.0,040626,5.7,E,A*15
10:00:15.005 $GPGGA,100015,4735.0399,N,01851.3064,E,1,10,0.9,105.0,M,40.0,M,,*45
10:00:15.010 $GPGLL,4735.0399,N,01851.3064,E,100015,A,A*48
10:00:15.015 $GPVTG,0.0,T,354.3,M,5.0,N,9.3,K,A*2D
10:00:15.020 $IIHDG,354.3,,,5.7,E*21
10:00:15.025 $WIMWV,35.3,R,9.1,N,A*1E
10:00:15.030 $WIMWV,35.3,T,8.1,N,A*19
10:00:15.035 $WIMWD,35.3,T,29.6,M,8.1,N,4.2,M*5D
10:00:15.040 $IIVHW,0.0,T,354.3,M,5.0,N,9.3,K*5B
10:00:16.000 $GPRMC,100016,A,4735.0413,N,01851.3064,E,5.0,0.0,040626,5.7,E,A*13
10:00:16.005 $GPGGA,100016,4735.0413,N,01851.3064,E,1,10,0.9,105.0,M,40.0,M,,*43
10:00:16.010 $GPGLL,4735.0413,N,01851.3064,E,100016,A,A*4E
10:00:16.015 $GPVTG,0.0,T,354.3,M,5.0,N,9.3,K,A*2D
10:00:16.020 $IIHDG,354.3,,,5.7,E*21
10:00:16.025 $WIMWV,35.3,R,9.1,N,A*1E
10:00:16.030 $WIMWV,35.3,T,8.1,N,A*19
10:00:16.035 $WIMWD,35.3,T,29.6,M,8.1,N,4.2,M*5D
10:00:16.040 $IIVHW,0.0,T,354.3,M,5.0,N,9.3,K*5B
10:00:17.000 $GPRMC,100017,A,4735.0427,N,01851.3064,E,5.0,0.0,040626,5.7,E,A*15
10:00:17.005 $GPGGA,100017,4735.0427,N,01851.3064,E,1,10,0.9,105.0,M,40.0,M,,*45
10:00:17.010 $GPGLL,4735.0427,N,01851.3064,E,100017,A,A*48
10:00:17.015 $GPVTG,0.0,T,354.3,M,5.0,N,9.3,K,A*2D
10:00:17.020 $IIHDG,354.3,,,5.7,E*21
10:00:17.025 $WIMWV,35.3,R,9.1,N,A*1E
10:00:17.030 $WIMWV,35.3,T,8.1,N,A*19
10:00:17.035 $WIMWD,35.3,T,29.6,M,8.1,N,4.2,M*5D
10:00:17.040 $IIVHW,0.0,T,354.3,M,5.0,N,9.3,K*5B
10:00:18.000 $GPRMC,100018,A,4735.0440,N,01851.3064,E,5.0,0.0,040626,5.7,E,A*1B
10:00:18.005 $GPGGA,100018,4735.0440,N,01851.3064,E,1,10,0.9,105.0,M,40.0,M,,*4B
10:00:18.010 $GPGLL,4735.0440,N,01851.3064,E,100018,A,A*46
10:00:18.015 $GPVTG,0.0,T,354.3,M,5.0,N,9.3,K,A*2D
10:00:18.020 $IIHDG,354.3,,,5.7,E*21
10:00:18.025 $WIMWV,35.3,R,9.1,N,A*1E
10:00:18.030 $WIMWV,35.3,T,8.1,N,A*19
10:00:18.035 $WIMWD,35.3,T,29.6,M,8.1,N,4.2,M*5D
10:00:18.040 $IIVHW,0.0,T,354.3,M,5.0,N,9.3,K*5B
10:00:19.000 $GPRMC,100019,A,4735.0454,N,01851.3064,E,5.0,0.0,040626,5.7,E,A*1F
10:00:19.005 $GPGGA,100019,4735.0454,N,01851.3064,E,1,10,0.9,105.0,M,40.0,M,,*4F
10:00:19.010 $GPGLL,4735.0454,N,01851.3064,E,100019,A,A*42
10:00:19.015 $GPVTG,0.0,T,354.3,M,5.0,N,9.3,K,A*2D
10:00:19.020 $IIHDG,354.3,,,5.7,E*21
10:00:19.025 $WIMWV,35.4,R,9.1,N,A*19
10:00:19.030 $WIMWV,35.4,T,8.1,N,A*1E
10:00:19.035 $WIMWD,35.4,T,29.7,M,8.1,N,4.2,M*5B
10:00:19.040 $IIVHW,0.0,T,354.3,M,5.0,N,9.3,K*5B
10:00:20.000 $GPRMC,100020,A,4735.0468,N,01851.3064,E,5.0,0.0,040626,5.7,E,A*1A
10:00:20.005 $GPGGA,100020,4735.0468,N,01851.3064,E,1,10,0.9,105.0,M,40.0,M,,*4A
10:00:20.010 $GPGLL,4735.0468,N,01851.3064,E,100020,A,A*47
10:00:20.015 $GPVTG,0.0,T,354.3,M,5.0,N,9.3,K,A*2D
10:00:20.020 $IIHDG,354.3,,,5.7,E*21
10:00:20.025 $WIMWV,35.4,R,9.1,N,A*19
10:00:20.030 $WIMWV,35.4,T,8.1,N,A*1E
10:00:20.035 $WIMWD,35.4,T,29.7,M,8.1,N,4.2,M*5B
10:00:20.040 $IIVHW,0.0,T,354.3,M,5.0,N,9.3,K*5B
10:00:21.000 $GPRMC,100021,A,4735.0482,N,01851.3064,E,5.0,0.0,040626,5.7,E,A*1F
10:00:21.005 $GPGGA,100021,4735.0482,N,01851.3064,E,1,10,0.9,105.0,M,40.0,M,,*4F
10:00:21.010 $GPGLL,4735.0482,N,01851.3064,E,100021,A,A*42
10:00:21.015 $GPVTG,0.0,T,354.3,M,5.0,N,9.3,K,A*2D
10:00:21.020 $IIHDG,354.3,,,5.7,E*21
10:00:21.025 $WIMWV,35.4,R,9.1,N,A*19
10:00:21.030 $WIMWV,35.4,T,8.1,N,A*1E
10:00:21.035 $WIMWD,35.4,T,29.7,M,8.1,N,4.2,M*5B
10:00:21.040 $IIVHW,0.0,T,354.3,M,5.0,N,9.3,K*5B
10:00:22.000 $GPRMC,100022,A,4735.0496,N,01851.3064,E,5.0,0.0,040626,5.7,E,A*19
10:00:22.005 $GPGGA,100022,4735.0496,N,01851.3064,E,1,10,0.9,105.0,M,40.0,M,,*49
10:00:22.010 $GPGLL,4735.0496,N,01851.3064,E,100022,A,A*44
10:00:22.015 $GPVTG,0.0,T,354.3,M,5.0,N,9.3,K,A*2D
10:00:22.020 $IIHDG,354.3,,,5.7,E*21
10:00:22.025 $WIMWV,35.4,R,9.1,N,A*19
10:00:22.030 $WIMWV,35.4,T,8.1,N,A*1E
10:00:22.035 $WIMWD,35.4,T,29.7,M,8.1,N,4.2,M*5B
10:00:22.040 $IIVHW,0.0,T,354.3,M,5.0,N,9.3,K*5B
10:00:23.000 $GPRMC,100023,A,4735.0510,N,01851.3064,E,5.0,0.0,040626,5.7,E,A*17
10:00:23.005 $GPGGA,100023,4735.0510,N,01851.3064,E,1,10,0.9,105.0,M,40.0,M,,*47
10:00:23.010 $GPGLL,4735.0510,N,01851.3064,E,100023,A,A*4A
10:00:23.015 $GPVTG,0.0,T,354.3,M,5.0,N,9.3,K,A*2D
10:00:23.020 $IIHDG,354.3,,,5.7,E*21
10:00:23.025 $WIMWV,35.4,R,9.1,N,A*19
10:00:23.030 $WIMWV,35.4,T,8.1,N,A*1E
10:00:23.035 $WIMWD,35.4,T,29.7,M,8.1,N,4.2,M*5B
10:00:23.040 $IIVHW,0.0,T,354.3,M,5.0,N,9.3,K*5B
10:00:24.000 $GPRMC,100024,A,4735.0524,N,01851.3064,E,5.0,0.0,040626,5.7,E,A*17
10:00:24.005 $GPGGA,100024,4735.0524,N,01851.3064,E,1,10,0.9,105.0,M,40.0,M,,*47
10:00:24.010 $GPGLL,4735.0524,N,01851.3064,E,100024,A,A*4A
10:00:24.015 $GPVTG,0.0,T,354.3,M,5.0,N,9.3,K,A*2D
10:00:24.020 $IIHDG,354.3,,,5.7,E*21
10:00:24.025 $WIMWV,35.5,R,9.1,N,A*18
10:00:24.030 $WIMWV,35.5,T,8.1,N,A*1F
10:00:24.035 $WIMWD,35.5,T,29.8,M,8.1,N,4.2,M*55
10:00:24.040 $IIVHW,0.0,T,354.3,M,5.0,N,9.3,K*5B
10:00:25.000 $GPRMC,100025,A,4735.0538,N,01851.3064,E,5.0,0.0,040626,5.7,E,A*1B
10:00:25.005 $GPGGA,100025,4735.0538,N,01851.3064,E,1,10,0.9,105.0,M,40.0,M,,*4B
10:00:25.010 $GPGLL,4735.0538,N,01851.3064,E,100025,A,A*46
10:00:25.015 $GPVTG,0.0,T,354.3,M,5.0,N,9.3,K,A*2D
10:00:25.020 $IIHDG,354.3,,,5.7,E*21
10:00:25.025 $WIMWV,35.5,R,9.1,N,A*18
10:00:25.030 $WIMWV,35.5,T,8.1,N,A*1F
10:00:25.035 $WIMWD,35.5,T,29.8,M,8.1,N,4.2,M*55
10:00:25.040 $IIVHW,0.0,T,354.3,M,5.0,N,9.3,K*5B
10:00:26.000 $GPRMC,100026,A,4735.0551,N,01851.3064,E,5.0,0.0,040626,5.7,E,A*17
10:00:26.005 $GPGGA,100026,4735.0551,N,01851.3064,E,1,10,0.9,105.0,M,40.0,M,,*47
10:00:26.010 $GPGLL,4735.0551,N,01851.3064,E,100026,A,A*4A
10:00:26.015 $GPVTG,0.0,T,354.3,M,5.0,N,9.3,K,A*2D
10:00:26.020 $IIHDG,354.3,,,5.7,E*21
10:00:26.025 $WIMWV,35.5,R,9.1,N,A*18
10:00:26.030 $WIMWV,35.5,T,8.1,N,A*1F
10:00:26.035 $WIMWD,35.5,T,29.8,M,8.1,N,4.2,M*55
10:00:26.040 $IIVHW,0.0,T,354.3,M,5.0,N,9.3,K*5B
10:00:27.000 $GPRMC,100027,A,4735.0565,N,01851.3064,E,5.0,0.0,040626,5.7,E,A*11
10:00:27.005 $GPGGA,100027,4735.0565,N,01851.3064,E,1,10,0.9,105.0,M,40.0,M,,*41
10:00:27.010 $GPGLL,4735.0565,N,01851.3064,E,100027,A,A*4C
10:00:27.015 $GPVTG,0.0,T,354.3,M,5.0,N,9.3,K,A*2D
10:00:27.020 $IIHDG,354.3,,,5.7,E*21
10:00:27.025 $WIMWV,35.5,R,9.1,N,A*18
10:00:27.030 $WIMWV,35.5,T,8.1,N,A*1F
10:00:27.035 $WIMWD,35.5,T,29.8,M,8.1,N,4.2,M*55
10:00:27.040 $IIVHW,0.0,T,354.3,M,5.0,N,9.3,K*5B
10:00:28.000 $GPRMC,100028,A,4735.0579,N,01851.3064,E,5.0,0.0,040626,5.7,E,A*13
10:00:28.005 $GPGGA,100028,4735.0579,N,01851.3064,E,1,10,0.9,105.0,M,40.0,M,,*43
10:00:28.010 $GPGLL,4735.0579,N,01851.3064,E,100028,A,A*4E
10:00:28.015 $GPVTG,0.0,T,354.3,M,5.0,N,9.3,K,A*2D
10:00:28.020 $IIHDG,354.3,,,5.7,E*21
10:00:28.025 $WIMWV,35.5,R,9.1,N,A*18
10:00:28.030 $WIMWV,35.5,T,8.1,N,A*1F
10:00:28.035 $WIMWD,35.5,T,29.8,M,8.1,N,4.2,M*55
10:00:28.040 $IIVHW,0.0,T,354.3,M,5.0,N,9.3,K*5B
10:00:29.000 $GPRMC,100029,A,4735.0593,N,01851.3064,E,5.0,0.0,040626,5.7,E,A*16
10:00:29.005 $GPGGA,100029,4735.0593,N,01851.3064,E,1,10,0.9,105.0,M,40.0,M,,*46
10:00:29.010 $GPGLL,4735.0593,N,01851.3064,E,100029,A,A*4B
10:00:29.015 $GPVTG,0.0,T,354.3,M,5.0,N,9.3,K,A*2D
10:00:29.020 $IIHDG,354.3,,,5.7,E*21
10:00:29.025 $WIMWV,35.5,R,9.1,N,A*18
10:00:29.030 $WIMWV,35.5,T,8.1,N,A*1F
10:00:29.035 $WIMWD,35.5,T,29.8,M,8.1,N,4.2,M*55
10:00:29.040 $IIVHW,0.0,T,354.3,M,5.0,N,9.3,K*5B
10:00:30.000 $GPRMC,100030,A,4735.0607,N,01851.3064,E,5.0,0.0,040626,5.7,E,A*10
10:00:30.005 $GPGGA,100030,4735.0607,N,01851.3064,E,1,10,0.9,105.0,M,40.0,M,,*40
10:00:30.010 $GPGLL,4735.0607,N,01851.3064,E,100030,A,A*4D
10:00:30.015 $GPVTG,0.0,T,354.3,M,5.0,N,9.3,K,A*2D
10:00:30.020 $IIHDG,354.3,,,5.7,E*21
10:00:30.025 $WIMWV,35.6,R,9.1,N,A*1B
10:00:30.030 $WIMWV,35.6,T,8.1,N,A*1C
10:00:30.035 $WIMWD,35.6,T,29.9,M,8.1,N,4.2,M*57
10:00:30.040 $IIVHW,0.0,T,354.3,M,5.0,N,9.3,K*5B
10:00:31.000 $GPRMC,100031,A,4735.0621,N,01851.3064,E,5.0,0.0,040626,5.7,E,A*15
10:00:31.005 $GPGGA,100031,4735.0621,N,01851.3064,E,1,10,0.9,105.0,M,40.0,M,,*45
10:00:31.010 $GPGLL,4735.0621,N,01851.3064,E,100031,A,A*48
10:00:31.015 $GPVTG,0.0,T,354.3,M,5.0,N,9.3,K,A*2D
10:00:31.020 $IIHDG,354.3,,,5.7,E*21
10:00:31.025 $WIMWV,35.6,R,9.1,N,A*1B
10:00:31.030 $WIMWV,35.6,T,8.1,N,A*1C
10:00:31.035 $WIMWD,35.6,T,29.9,M,8.1,N,4.2,M*57
10:00:31.040 $IIVHW,0.0,T,354.3,M,5.0,N,9.3,K*5B
10:00:32.000 $GPRMC,100032,A,4735.0635,N,01851.3064,E,5.0,0.0,040626,5.7,E,A*13
10:00:32.005 $GPGGA,100032,4735.0635,N,01851.3064,E,1,10,0.9,105.0,M,40.0,M,,*43
10:00:32.010 $GPGLL,4735.0635,N,01851.3064,E,100032,A,A*4E
10:00:32.015 $GPVTG,0.0,T,354.3,M,5.0,N,9.3,K,A*2D
10:00:32.020 $IIHDG,354.3,,,5.7,E*21
10:00:32.025 $WIMWV,35.6,R,9.1,N,A*1B
10:00:32.030 $WIMWV,35.6,T,8.1,N,A*1C
10:00:32.035 $WIMWD,35.6,T,29.9,M,8.1,N,4.2,M*57
10:00:32.040 $IIVHW,0.0,T,354.3,M,5.0,N,9.3,K*5B
10:00:33.000 $GPRMC,100033,A,4735.0649,N,01851.3064,E,5.0,0.0,040626,5.7,E,A*19
10:00:33.005 $GPGGA,100033,4735.0649,N,01851.3064,E,1,10,0.9,105.0,M,40.0,M,,*49
10:00:33.010 $GPGLL,4735.0649,N,01851.3064,E,100033,A,A*44
10:00:33.015 $GPVTG,0.0,T,354.3,M,5.0,N,9.3,K,A*2D
10:00:33.020 $IIHDG,354.3,,,5.7,E*21
10:00:33.025 $WIMWV,35.6,R,9.1,N,A*1B
10:00:33.030 $WIMWV,35.6,T,8.1,N,A*1C
10:00:33.035 $WIMWD,35.6,T,29.9,M,8.1,N,4.2,M*57
10:00:33.040 $IIVHW,0.0,T,354.3,M,5.0,N,9.3,K*5B
10:00:34.000 $GPRMC,100034,A,4735.0663,N,01851.3064,E,5.0,0.0,040626,5.7,E,A*16
10:00:34.005 $GPGGA,100034,4735.0663,N,01851.3064,E,1,10,0.9,105.0,M,40.0,M,,*46
10:00:34.010 $GPGLL,4735.0663,N,01851.3064,E,100034,A,A*4B
10:00:34.015 $GPVTG,0.0,T,354.3,M,5.0,N,9.3,K,A*2D
10:00:34.020 $IIHDG,354.3,,,5.7,E*21
10:00:34.025 $WIMWV,35.6,R,9.1,N,A*1B
10:00:34.030 $WIMWV,35.6,T,8.1,N,A*1C
10:00:34.035 $WIMWD,35.6,T,29.9,M,8.1,N,4.2,M*57
10:00:34.040 $IIVHW,0.0,T,354.3,M,5.0,N,9.3,K*5B
10:00:35.000 $GPRMC,100035,A,4735.0676,N,01851.3064,E,5.0,0.0,040626,5.7,E,A*13
10:00:35.005 $GPGGA,100035,4735.0676,N,01851.3064,E,1,10,0.9,105.0,M,40.0,M,,*43
10:00:35.010 $GPGLL,4735.0676,N,01851.3064,E,100035,A,A*4E
10:00:35.015 $GPVTG,0.0,T,354.3,M,5.0,N,9.3,K,A*2D
10:00:35.020 $IIHDG,354.3,,,5.7,E*21
10:00:35.025 $WIMWV,35.7,R,9.1,N,A*1A
10:00:35.030 $WIMWV,35.7,T,8.1,N,A*1D
10:00:35.035 $WIMWD,35.7,T,30.0,M,8.1,N,4.2,M*57
10:00:35.040 $IIVHW,0.0,T,354.3,M,5.0,N,9.3,K*5B
10:00:36.000 $GPRMC,100036,A,4735.0690,N,01851.3064,E,5.0,0.0,040626,5.7,E,A*18
10:00:36.005 $GPGGA,100036,4735.0690,N,01851.3064,E,1,10,0.9,105.0,M,40.0,M,,*48
10:00:36.010 $GPGLL,4735.0690,N,01851.3064,E,100036,A,A*45
10:00:36.015 $GPVTG,0.0,T,354.3,M,5.0,N,9.3,K,A*2D
10:00:36.020 $IIHDG,354.3,,,5.7,E*21
10:00:36.025 $WIMWV,35.7,R,9.1,N,A*1A
10:00:36.030 $WIMWV,35.7,T,8.1,N,A*1D
10:00:36.035 $WIMWD,35.7,T,30.0,M,8.1,N,4.2,M*57
10:00:36.040 $IIVHW,0.0,T,354.3,M,5.0,N,9.3,K*5B
10:00:37.000 $GPRMC,100037,A,4735.0704,N,01851.3064,E,5.0,0.0,040626,5.7,E,A*15
10:00:37.005 $GPGGA,100037,4735.0704,N,01851.3064,E,1,10,0.9,105.0,M,40.0,M,,*45
10:00:37.010 $GPGLL,4735.0704,N,01851.3064,E,100037,A,A*48
10:00:37.015 $GPVTG,0.0,T,354.3,M,5.0,N,9.3,K,A*2D
10:00:37.020 $IIHDG,354.3,,,5.7,E*21
10:00:37.025 $WIMWV,35.7,R,9.1,N,A*1A
10:00:37.030 $WIMWV,35.7,T,8.1,N,A*1D
10:00:37.035 $WIMWD,35.7,T,30.0,M,8.1,N,4.2,M*57
10:00:37.040 $IIVHW,0.0,T,354.3,M,5.0,N,9.3,K*5B
10:00:38.000 $GPRMC,100038,A,4735.0718,N,01851.3064,E,5.0,0.0,040626,5.7,E,A*17
10:00:38.005 $GPGGA,100038,4735.0718,N,01851.3064,E,1,10,0.9,105.0,M,40.0,M,,*47
10:00:38.010 $GPGLL,4735.0718,N,01851.3064,E,100038,A,A*4A
10:00:38.015 $GPVTG,0.0,T,354.3,M,5.0,N,9.3,K,A*2D
10:00:38.020 $IIHDG,354.3,,,5.7,E*21
10:00:38.025 $WIMWV,35.7,R,9.1,N,A*1A
10:00:38.030 $WIMWV,35.7,T,8.1,N,A*1D
10:00:38.035 $WIMWD,35.7,T,30.0,M,8.1,N,4.2,M*57
10:00:38.040 $IIVHW,0.0,T,354.3,M,5.0,N,9.3,K*5B
10:00:39.000 $GPRMC,100039,A,4735.0732,N,01851.3064,E,5.0,0.0,040626,5.7,E,A*1E
10:00:39.005 $GPGGA,100039,4735.0732,N,01851.3064,E,1,10,0.9,105.0,M,40.0,M,,*4E
10:00:39.010 $GPGLL,4735.0732,N,01851.3064,E,100039,A,A*43
10:00:39.015 $GPVTG,0.0,T,354.3,M,5.0,N,9.3,K,A*2D
10:00:39.020 $IIHDG,354.3,,,5.7,E*21
10:00:39.025 $WIMWV,35.7,R,9.1,N,A*1A
10:00:39.030 $WIMWV,35.7,T,8.1,N,A*1D
10:00:39.035 $WIMWD,35.7,T,30.0,M,8.1,N,4.2,M*57
10:00:39.040 $IIVHW,0.0,T,354.3,M,5.0,N,9.3,K*5B
10:00:40.000 $GPRMC,100040,A,4735.0746,N,01851.3064,E,5.0,0.0,040626,5.7,E,A*13
10:00:40.005 $GPGGA,100040,4735.0746,N,01851.3064,E,1,10,0.9,105.0,M,40.0,M,,*43
10:00:40.010 $GPGLL,4735.0746,N,01851.3064,E,100040,A,A*4E
10:00:40.015 $GPVTG,0.0,T,354.3,M,5.0,N,9.3,K,A*2D
10:00:40.020 $IIHDG,354.3,,,5.7,E*21
10:00:40.025 $WIMWV,35.8,R,9.1,N,A*15
10:00:40.030 $WIMWV,35.8,T,8.1,N,A*12
10:00:40.035 $WIMWD,35.8,T,30.1,M,8.1,N,4.2,M*59
10:00:40.040 $IIVHW,0.0,T,354.3,M,5.0,N,9.3,K*5B
10:00:41.000 $GPRMC,100041,A,4735.0760,N,01851.3064,E,5.0,0.0,040626,5.7,E,A*16
10:00:41.005 $GPGGA,100041,4735.0760,N,01851.3064,E,1,10,0.9,105.0,M,40.0,M,,*46
10:00:41.010 $GPGLL,4735.0760,N,01851.3064,E,100041,A,A*4B
10:00:41.015 $GPVTG,0.0,T,354.3,M,5.0,N,9.3,K,A*2D
10:00:41.020 $IIHDG,354.3,,,5.7,E*21
10:00:41.025 $WIMWV,35.8,R,9.1,N,A*15
10:00:41.030 $WIMWV,35.8,T,8.1,N,A*12
10:00:41.035 $WIMWD,35.8,T,30.1,M,8.1,N,4.2,M*59
10:00:41.040 $IIVHW,0.0,T,354.3,M,5.0,N,9.3,K*5B
10:00:42.000 $GPRMC,100042,A,4735.0774,N,01851.3064,E,5.0,0.0,040626,5.7,E,A*10
10:00:42.005 $GPGGA,100042,4735.0774,N,01851.3064,E,1,10,0.9,105.0,M,40.0,M,,*40
10:00:42.010 $GPGLL,4735.0774,N,01851.3064,E,100042,A,A*4D
10:00:42.015 $GPVTG,0.0,T,354.3,M,5.0,N,9.3,K,A*2D
10:00:42.020 $IIHDG,354.3,,,5.7,E*21
10:00:42.025 $WIMWV,35.8,R,9.1,N,A*15
10:00:42.030 $WIMWV,35.8,T,8.1,N,A*12
10:00:42.035 $WIMWD,35.8,T,30.1,M,8.1,N,4.2,M*59
10:00:42.040 $IIVHW,0.0,T,354.3,M,5.0,N,9.3,K*5B
10:00:43.000 $GPRMC,100043,A,4735.0787,N,01851.3064,E,5.0,0.0,040626,5.7,E,A*1D
10:00:43.005 $GPGGA,100043,4735.0787,N,01851.3064,E,1,10,0.9,105.0,M,40.0,M,,*4D
10:00:43.010 $GPGLL,4735.0787,N,01851.3064,E,100043,A,A*40
10:00:43.015 $GPVTG,0.0,T,354.3,M,5.0,N,9.3,K,A*2D
10:00:43.020 $IIHDG,354.3,,,5.7,E*21
10:00:43.025 $WIMWV,35.8,R,9.1,N,A*15
10:00:43.030 $WIMWV,35.8,T,8.1,N,A*12
10:00:43.035 $WIMWD,35.8,T,30.1,M,8.1,N,4.2,M*59
10:00:43.040 $IIVHW,0.0,T,354.3,M,5.0,N,9.3,K*5B
10:00:44.000 $GPRMC,100044,A,4735.0801,N,01851.3064,E,5.0,0.0,040626,5.7,E,A*1B
10:00:44.005 $GPGGA,100044,4735.0801,N,01851.3064,E,1,10,0.9,105.0,M,40.0,M,,*4B
10:00:44.010 $GPGLL,4735.0801,N,01851.3064,E,100044,A,A*46
10:00:44.015 $GPVTG,0.0,T,354.3,M,5.0,N,9.3,K,A*2D
10:00:44.020 $IIHDG,354.3,,,5.7,E*21
10:00:44.025 $WIMWV,35.8,R,9.1,N,A*15
10:00:44.030 $WIMWV,35.8,T,8.1,N,A*12
10:00:44.035 $WIMWD,35.8,T,30.1,M,8.1,N,4.2,M*59
10:00:44.040 $IIVHW,0.0,T,354.3,M,5.0,N,9.3,K*5B
10:00:45.000 $GPRMC,100045,A,4735.0815,N,01851.3064,E,5.0,0.0,040626,5.7,E,A*1F
10:00:45.005 $GPGGA,100045,4735.0815,N,01851.3064,E,1,10,0.9,105.0,M,40.0,M,,*4F
10:00:45.010 $GPGLL,4735.0815,N,01851.3064,E,100045,A,A*42
10:00:45.015 $GPVTG,0.0,T,354.3,M,5.0,N,9.3,K,A*2D
10:00:45.020 $IIHDG,354.3,,,5.7,E*21
10:00:45.025 $WIMWV,35.8,R,9.1,N,A*15
10:00:45.030 $WIMWV,35.8,T,8.1,N,A*12
10:00:45.035 $WIMWD,35.8,T,30.1,M,8.1,N,4.2,M*59
10:00:45.040 $IIVHW,0.0,T,354.3,M,5.0,N,9.3,K*5B
10:00:46.000 $GPRMC,100046,A,4735.0829,N,01851.3064,E,5.0,0.0,040626,5.7,E,A*13
10:00:46.005 $GPGGA,100046,4735.0829,N,01851.3064,E,1,10,0.9,105.0,M,40.0,M,,*43
10:00:46.010 $GPGLL,4735.0829,N,01851.3064,E,100046,A,A*4E
10:00:46.015 $GPVTG,0.0,T,354.3,M,5.0,N,9.3,K,A*2D
10:00:46.020 $IIHDG,354.3,,,5.7,E*21
10:00:46.025 $WIMWV,35.9,R,9.1,N,A*14
10:00:46.030 $WIMWV,35.9,T,8.1,N,A*13
10:00:46.035 $WIMWD,35.9,T,30.2,M,8.1,N,4.2,M*5B
10:00:46.040 $IIVHW,0.0,T,354.3,M,5.0,N,9.3,K*5B
10:00:47.000 $GPRMC,100047,A,4735.0843,N,01851.3064,E,5.0,0.0,040626,5.7,E,A*1E
10:00:47.005 $GPGGA,100047,4735.0843,N,01851.3064,E,1,10,0.9,105.0,M,40.0,M,,*4E
10:00:47.010 $GPGLL,4735.0843,N,01851.3064,E,100047,A,A*43
10:00:47.015 $GPVTG,0.0,T,354.3,M,5.0,N,9.3,K,A*2D
10:00:47.020 $IIHDG,354.3,,,5.7,E*21
10:00:47.025 $WIMWV,35.9,R,9.1,N,A*14
10:00:47.030 $WIMWV,35.9,T,8.1,N,A*13
10:00:47.035 $WIMWD,35.9,T,30.2,M,8.1,N,4.2,M*5B
10:00:47.040 $IIVHW,0.0,T,354.3,M,5.0,N,9.3,K*5B
10:00:48.000 $GPRMC,100048,A,4735.0857,N,01851.3064,E,5.0,0.0,040626,5.7,E,A*14
10:00:48.005 $GPGGA,100048,4735.0857,N,01851.3064,E,1,10,0.9,105.0,M,40.0,M,,*44
10:00:48.010 $GPGLL,4735.0857,N,01851.3064,E,100048,A,A*49
10:00:48.015 $GPVTG,0.0,T,354.3,M,5.0,N,9.3,K,A*2D
10:00:48.020 $IIHDG,354.3,,,5.7,E*21
10:00:48.025 $WIMWV,35.9,R,9.1,N,A*14
10:00:48.030 $WIMWV,35.9,T,8.1,N,A*13
10:00:48.035 $WIMWD,35.9,T,30.2,M,8.1,N,4.2,M*5B
10:00:48.040 $IIVHW,0.0,T,354.3,M,5.0,N,9.3,K*5B
10:00:49.000 $GPRMC,100049,A,4735.0871,N,01851.3064,E,5.0,0.0,040626,5.7,E,A*11
10:00:49.005 $GPGGA,100049,4735.0871,N,01851.3064,E,1,10,0.9,105.0,M,40.0,M,,*41
10:00:49.010 $GPGLL,4735.0871,N,01851.3064,E,100049,A,A*4C
10:00:49.015 $GPVTG,0.0,T,354.3,M,5.0,N,9.3,K,A*2D
10:00:49.020 $IIHDG,354.3,,,5.7,E*21
10:00:49.025 $WIMWV,35.9,R,9.1,N,A*14
10:00:49.030 $WIMWV,35.9,T,8.1,N,A*13
10:00:49.035 $WIMWD,35.9,T,30.2,M,8.1,N,4.2,M*5B
10:00:49.040 $IIVHW,0.0,T,354.3,M,5.0,N,9.3,K*5B
10:00:50.000 $GPRMC,100050,A,4735.0885,N,01851.3064,E,5.0,0.0,040626,5.7,E,A*12
10:00:50.005 $GPGGA,100050,4735.0885,N,01851.3064,E,1,10,0.9,105.0,M,40.0,M,,*42
10:00:50.010 $GPGLL,4735.0885,N,01851.3064,E,100050,A,A*4F
10:00:50.015 $GPVTG,0.0,T,354.3,M,5.0,N,9.3,K,A*2D
10:00:50.020 $IIHDG,354.3,,,5.7,E*21
10:00:50.025 $WIMWV,35.9,R,9.1,N,A*14
10:00:50.030 $WIMWV,35.9,T,8.1,N,A*13
10:00:50.035 $WIMWD,35.9,T,30.2,M,8.1,N,4.2,M*5B
10:00:50.040 $IIVHW,0.0,T,354.3,M,5.0,N,9.3,K*5B
10:00:51.000 $GPRMC,100051,A,4735.0898,N,01851.3064,E,5.0,0.0,040626,5.7,E,A*1F
10:00:51.005 $GPGGA,100051,4735.0898,N,01851.3064,E,1,10,0.9,105.0,M,40.0,M,,*4F
10:00:51.010 $GPGLL,4735.0898,N,01851.3064,E,100051,A,A*42
10:00:51.015 $GPVTG,0.0,T,354.3,M,5.0,N,9.3,K,A*2D
10:00:51.020 $IIHDG,354.3,,,5.7,E*21
10:00:51.025 $WIMWV,36.0,R,9.1,N,A*1E
10:00:51.030 $WIMWV,36.0,T,8.1,N,A*19
10:00:51.035 $WIMWD,36.0,T,30.3,M,8.1,N,4.2,M*50
10:00:51.040 $IIVHW,0.0,T,354.3,M,5.0,N,9.3,K*5B
10:00:52.000 $GPRMC,100052,A,4735.0912,N,01851.3064,E,5.0,0.0,040626,5.7,E,A*1F
10:00:52.005 $GPGGA,100052,4735.0912,N,01851.3064,E,1,10,0.9,105.0,M,40.0,M,,*4F
10:00:52.010 $GPGLL,4735.0912,N,01851.3064,E,100052,A,A*42
10:00:52.015 $GPVTG,0.0,T,354.3,M,5.0,N,9.3,K,A*2D
10:00:52.020 $IIHDG,354.3,,,5.7,E*21
10:00:52.025 $WIMWV,36.0,R,9.1,N,A*1E
10:00:52.030 $WIMWV,36.0,T,8.1,N,A*19
10:00:52.035 $WIMWD,36.0,T,30.3,M,8.1,N,4.2,M*50
10:00:52.040 $IIVHW,0.0,T,354.3,M,5.0,N,9.3,K*5B
10:00:53.000 $GPRMC,100053,A,4735.0926,N,01851.3064,E,5.0,0.0,040626,5.7,E,A*19
10:00:53.005 $GPGGA,100053,4735.0926,N,01851.3064,E,1,10,0.9,105.0,M,40.0,M,,*49
10:00:53.010 $GPGLL,4735.0926,N,01851.3064,E,100053,A,A*44
10:00:53.015 $GPVTG,0.0,T,354.3,M,5.0,N,9.3,K,A*2D
10:00:53.020 $IIHDG,354.3,,,5.7,E*21
10:00:53.025 $WIMWV,36.0,R,9.1,N,A*1E
10:00:53.030 $WIMWV,36.0,T,8.1,N,A*19
10:00:53.035 $WIMWD,36.0,T,30.3,M,8.1,N,4.2,M*50
10:00:53.040 $IIVHW,0.0,T,354.3,M,5.0,N,9.3,K*5B
10:00:54.000 $GPRMC,100054,A,4735.0940,N,01851.3064,E,5.0,0.0,040626,5.7,E,A*1E
10:00:54.005 $GPGGA,100054,4735.0940,N,01851.3064,E,1,10,0.9,105.0,M,40.0,M,,*4E
10:00:54.010 $GPGLL,4735.0940,N,01851.3064,E,100054,A,A*43
10:00:54.015 $GPVTG,0.0,T,354.3,M,5.0,N,9.3,K,A*2D
10:00:54.020 $IIHDG,354.3,,,5.7,E*21
10:00:54.025 $WIMWV,36.0,R,9.1,N,A*1E
10:00:54.030 $WIMWV,36.0,T,8.1,N,A*19
10:00:54.035 $WIMWD,36.0,T,30.3,M,8.1,N,4.2,M*50
10:00:54.040 $IIVHW,0.0,T,354.3,M,5.0,N,9.3,K*5B
10:00:55.000 $GPRMC,100055,A,4735.0954,N,01851.3064,E,5.0,0.0,040626,5.7,E,A*1A
10:00:55.005 $GPGGA,100055,4735.0954,N,01851.3064,E,1,10,0.9,105.0,M,40.0,M,,*4A
10:00:55.010 $GPGLL,4735.0954,N,01851.3064,E,100055,A,A*47
10:00:55.015 $GPVTG,0.0,T,354.3,M,5.0,N,9.3,K,A*2D
10:00:55.020 $IIHDG,354.3,,,5.7,E*21
10:00:55.025 $WIMWV,36.0,R,9.1,N,A*1E
10:00:55.030 $WIMWV,36.0,T,8.1,N,A*19
10:00:55.035 $WIMWD,36.0,T,30.3,M,8.1,N,4.2,M*50
10:00:55.040 $IIVHW,0.0,T,354.3,M,5.0,N,9.3,K*5B
10:00:56.000 $GPRMC,100056,A,4735.0968,N,01851.3064,E,5.0,0.0,040626,5.7,E,A*16
10:00:56.005 $GPGGA,100056,4735.0968,N,01851.3064,E,1,10,0.9,105.0,M,40.0,M,,*46
10:00:56.010 $GPGLL,4735.0968,N,01851.3064,E,100056,A,A*4B
10:00:56.015 $GPVTG,0.0,T,354.3,M,5.0,N,9.3,K,A*2D
10:00:56.020 $IIHDG,354.3,,,5.7,E*21
10:00:56.025 $WIMWV,36.1,R,9.1,N,A*1F
10:00:56.030 $WIMWV,36.1,T,8.1,N,A*18
10:00:56.035 $WIMWD,36.1,T,30.4,M,8.1,N,4.2,M*56
10:00:56.040 $IIVHW,0.0,T,354.3,M,5.0,N,9.3,K*5B
10:00:57.000 $GPRMC,100057,A,4735.0982,N,01851.3064,E,5.0,0.0,040626,5.7,E,A*13
10:00:57.005 $GPGGA,100057,4735.0982,N,01851.3064,E,1,10,0.9,105.0,M,40.0,M,,*43
10:00:57.010 $GPGLL,4735.0982,N,01851.3064,E,100057,A,A*4E
10:00:57.015 $GPVTG,0.0,T,354.3,M,5.0,N,9.3,K,A*2D
10:00:57.020 $IIHDG,354.3,,,5.7,E*21
10:00:57.025 $WIMWV,36.1,R,9.1,N,A*1F
10:00:57.030 $WIMWV,36.1,T,8.1,N,A*18
10:00:57.035 $WIMWD,36.1,T,30.4,M,8.1,N,4.2,M*56
10:00:57.040 $IIVHW,0.0,T,354.3,M,5.0,N,9.3,K*5B
10:00:58.000 $GPRMC,100058,A,4735.0996,N,01851.3064,E,5.0,0.0,040626,5.7,E,A*19
10:00:58.005 $GPGGA,100058,4735.0996,N,01851.3064,E,1,10,0.9,105.0,M,40.0,M,,*49
10:00:58.010 $GPGLL,4735.0996,N,01851.3064,E,100058,A,A*44
10:00:58.015 $GPVTG,0.0,T,354.3,M,5.0,N,9.3,K,A*2D
10:00:58.020 $IIHDG,354.3,,,5.7,E*21
10:00:58.025 $WIMWV,36.1,R,9.1,N,A*1F
10:00:58.030 $WIMWV,36.1,T,8.1,N,A*18
10:00:58.035 $WIMWD,36.1,T,30.4,M,8.1,N,4.2,M*56
10:00:58.040 $IIVHW,0.0,T,354.3,M,5.0,N,9.3,K*5B
10:00:59.000 $GPRMC,100059,A,4735.1009,N,01851.3064,E,5.0,0.0,040626,5.7,E,A*16
10:00:59.005 $GPGGA,100059,4735.1009,N,01851.3064,E,1,10,0.9,105.0,M,40.0,M,,*46
10:00:59.010 $GPGLL,4735.1009,N,01851.3064,E,100059,A,A*4B
10:00:59.015 $GPVTG,0.0,T,354.3,M,5.0,N,9.3,K,A*2D
10:00:59.020 $IIHDG,354.3,,,5.7,E*21
10:00:59.025 $WIMWV,36.1,R,9.1,N,A*1F
10:00:59.030 $WIMWV,36.1,T,8.1,N,A*18
10:00:59.035 $WIMWD,36.1,T,30.4,M,8.1,N,4.2,M*56
10:00:59.040 $IIVHW,0.0,T,354.3,M,5.0,N,9.3,K*5B
10:01:00.000 $GPRMC,100100,A,4735.1023,N,01851.3064,E,5.0,0.0,040626,5.7,E,A*13
10:01:00.005 $GPGGA,100100,4735.1023,N,01851.3064,E,1,10,0.9,105.0,M,40.0,M,,*43
10:01:00.010 $GPGLL,4735.1023,N,01851.3064,E,100100,A,A*4E
10:01:00.015 $GPVTG,0.0,T,354.3,M,5.0,N,9.3,K,A*2D
10:01:00.020 $IIHDG,354.3,,,5.7,E*21
10:01:00.025 $WIMWV,36.1,R,9.1,N,A*1F
10:01:00.030 $WIMWV,36.1,T,8.1,N,A*18
10:01:00.035 $WIMWD,36.1,T,30.4,M,8.1,N,4.2,M*56
10:01:00.040 $IIVHW,0.0,T,354.3,M,5.0,N,9.3,K*5B
10:01:01.000 $GPRMC,100101,A,4735.1037,N,01851.3064,E,5.0,0.0,040626,5.7,E,A*17
10:01:01.005 $GPGGA,100101,4735.1037,N,01851.3064,E,1,10,0.9,105.0,M,40.0,M,,*47
10:01:01.010 $GPGLL,4735.1037,N,01851.3064,E,100101,A,A*4A
10:01:01.015 $GPVTG,0.0,T,354.3,M,5.0,N,9.3,K,A*2D
10:01:01.020 $IIHDG,354.3,,,5.7,E*21
10:01:01.025 $WIMWV,36.2,R,9.1,N,A*1C
10:01:01.030 $WIMWV,36.2,T,8.1,N,A*1B
10:01:01.035 $WIMWD,36.2,T,30.5,M,8.1,N,4.2,M*54
10:01:01.040 $IIVHW,0.0,T,354.3,M,5.0,N,9.3,K*5B
10:01:02.000 $GPRMC,100102,A,4735.1051,N,01851.3064,E,5.0,0.0,040626,5.7,E,A*14
10:01:02.005 $GPGGA,100102,4735.1051,N,01851.3064,E,1,10,0.9,105.0,M,40.0,M,,*44
10:01:02.010 $GPGLL,4735.1051,N,01851.3064,E,100102,A,A*49
10:01:02.015 $GPVTG,0.0,T,354.3,M,5.0,N,9.3,K,A*2D
10:01:02.020 $IIHDG,354.3,,,5.7,E*21
10:01:02.025 $WIMWV,36.2,R,9.1,N,A*1C
10:01:02.030 $WIMWV,36.2,T,8.1,N,A*1B
10:01:02.035 $WIMWD,36.2,T,30.5,M,8.1,N,4.2,M*54
10:01:02.040 $IIVHW,0.0,T,354.3,M,5.0,N,9.3,K*5B
10:01:03.000 $GPRMC,100103,A,4735.1065,N,01851.3064,E,5.0,0.0,040626,5.7,E,A*12
10:01:03.005 $GPGGA,100103,4735.1065,N,01851.3064,E,1,10,0.9,105.0,M,40.0,M,,*42
10:01:03.010 $GPGLL,4735.1065,N,01851.3064,E,100103,A,A*4F
10:01:03.015 $GPVTG,0.0,T,354.3,M,5.0,N,9.3,K,A*2D
10:01:03.020 $IIHDG,354.3,,,5.7,E*21
10:01:03.025 $WIMWV,36.2,R,9.1,N,A*1C
10:01:03.030 $WIMWV,36.2,T,8.1,N,A*1B
10:01:03.035 $WIMWD,36.2,T,30.5,M,8.1,N,4.2,M*54
10:01:03.040 $IIVHW,0.0,T,354.3,M,5.0,N,9.3,K*5B
10:01:04.000 $GPRMC,100104,A,4735.1079,N,01851.3064,E,5.0,0.0,040626,5.7,E,A*18
10:01:04.005 $GPGGA,100104,4735.1079,N,01851.3064,E,1,10,0.9,105.0,M,40.0,M,,*48
10:01:04.010 $GPGLL,4735.1079,N,01851.3064,E,100104,A,A*45
10:01:04.015 $GPVTG,0.0,T,354.3,M,5.0,N,9.3,K,A*2D
10:01:04.020 $IIHDG,354.3,,,5.7,E*21
10:01:04.025 $WIMWV,36.2,R,9.1,N,A*1C
10:01:04.030 $WIMWV,36.2,T,8.1,N,A*1B
10:01:04.035 $WIMWD,36.2,T,30.5,M,8.1,N,4.2,M*54
10:01:04.040 $IIVHW,0.0,T,354.3,M,5.0,N,9.3,K*5B
10:01:05.000 $GPRMC,100105,A,4735.1093,N,01851.3064,E,5.0,0.0,040626,5.7,E,A*1D
10:01:05.005 $GPGGA,100105,4735.1093,N,01851.3064,E,1,10,0.9,105.0,M,40.0,M,,*4D
10:01:05.010 $GPGLL,4735.1093,N,01851.3064,E,100105,A,A*40
10:01:05.015 $GPVTG,0.0,T,354.3,M,5.0,N,9.3,K,A*2D
10:01:05.020 $IIHDG,354.3,,,5.7,E*21
10:01:05.025 $WIMWV,36.2,R,9.1,N,A*1C
10:01:05.030 $WIMWV,36.2,T,8.1,N,A*1B
10:01:05.035 $WIMWD,36.2,T,30.5,M,8.1,N,4.2,M*54
10:01:05.040 $IIVHW,0.0,T,354.3,M,5.0,N,9.3,K*5B
10:01:06.000 $GPRMC,100106,A,4735.1108,N,01851.3064,E,5.0,46.6,040626,5.7,E,A*29
10:01:06.005 $GPGGA,100106,4735.1108,N,01851.3064,E,1,10,0.9,105.0,M,40.0,M,,*4D
10:01:06.010 $GPGLL,4735.1108,N,01851.3064,E,100106,A,A*40
10:01:06.015 $GPVTG,46.6,T,40.9,M,5.0,N,9.3,K,A*25
10:01:06.020 $IIHDG,40.9,,,5.7,E*1D
10:01:06.025 $WIMWV,349.7,R,9.1,N,A*22
10:01:06.030 $WIMWV,349.7,T,8.1,N,A*25
10:01:06.035 $WIMWD,36.2,T,30.5,M,8.1,N,4.2,M*54
10:01:06.040 $IIVHW,46.6,T,40.9,M,5.0,N,9.3,K*53
10:01:07.000 $GPRMC,100107,A,4735.1117,N,01851.3079,E,5.0,46.6,040626,5.7,E,A*2A
10:01:07.005 $GPGGA,100107,4735.1117,N,01851.3079,E,1,10,0.9,105.0,M,40.0,M,,*4E
10:01:07.010 $GPGLL,4735.1117,N,01851.3079,E,100107,A,A*43
10:01:07.015 $GPVTG,46.6,T,40.9,M,5.0,N,9.3,K,A*25
10:01:07.020 $IIHDG,40.9,,,5.7,E*1D
10:01:07.025 $WIMWV,349.7,R,9.1,N,A*22
10:01:07.030 $WIMWV,349.7,T,8.1,N,A*25
10:01:07.035 $WIMWD,36.3,T,30.6,M,8.1,N,4.2,M*56
10:01:07.040 $IIVHW,46.6,T,40.9,M,5.0,N,9.3,K*53
10:01:08.000 $GPRMC,100108,A,4735.1127,N,01851.3094,E,5.0,46.6,040626,5.7,E,A*25
10:01:08.005 $GPGGA,100108,4735.1127,N,01851.3094,E,1,10,0.9,105.0,M,40.0,M,,*41
10:01:08.010 $GPGLL,4735.1127,N,01851.3094,E,100108,A,A*4C
10:01:08.015 $GPVTG,46.6,T,40.9,M,5.0,N,9.3,K,A*25
10:01:08.020 $IIHDG,40.9,,,5.7,E*1D
10:01:08.025 $WIMWV,349.7,R,9.1,N,A*22
10:01:08.030 $WIMWV,349.7,T,8.1,N,A*25
10:01:08.035 $WIMWD,36.3,T,30.6,M,8.1,N,4.2,M*56
10:01:08.040 $IIVHW,46.6,T,40.9,M,5.0,N,9.3,K*53
10:01:09.000 $GPRMC,100109,A,4735.1137,N,01851.3109,E,5.0,46.6,040626,5.7,E,A*20
10:01:09.005 $GPGGA,100109,4735.1137,N,01851.3109,E,1,10,0.9,105.0,M,40.0,M,,*44
10:01:09.010 $GPGLL,4735.1137,N,01851.3109,E,100109,A,A*49
10:01:09.015 $GPVTG,46.6,T,40.9,M,5.0,N,9.3,K,A*25
10:01:09.020 $IIHDG,40.9,,,5.7,E*1D
10:01:09.025 $WIMWV,349.7,R,9.1,N,A*22
10:01:09.030 $WIMWV,349.7,T,8.1,N,A*25
10:01:09.035 $WIMWD,36.3,T,30.6,M,8.1,N,4.2,M*56
10:01:09.040 $IIVHW,46.6,T,40.9,M,5.0,N,9.3,K*53
10:01:10.000 $GPRMC,100110,A,4735.1146,N,01851.3124,E,5.0,46.6,040626,5.7,E,A*21
10:01:10.005 $GPGGA,100110,4735.1146,N,01851.3124,E,1,10,0.9,105.0,M,40.0,M,,*45
10:01:10.010 $GPGLL,4735.1146,N,01851.3124,E,100110,A,A*48
10:01:10.015 $GPVTG,46.6,T,40.9,M,5.0,N,9.3,K,A*25
10:01:10.020 $IIHDG,40.9,,,5.7,E*1D
10:01:10.025 $WIMWV,349.8,R,9.1,N,A*2D
10:01:10.030 $WIMWV,349.8,T,8.1,N,A*2A
10:01:10.035 $WIMWD,36.3,T,30.6,M,8.1,N,4.2,M*56
10:01:10.040 $IIVHW,46.6,T,40.9,M,5.0,N,9.3,K*53
10:01:11.000 $GPRMC,100111,A,4735.1156,N,01851.3139,E,5.0,46.6,040626,5.7,E,A*2D
10:01:11.005 $GPGGA,100111,4735.1156,N,01851.3139,E,1,10,0.9,105.0,M,40.0,M,,*49
10:01:11.010 $GPGLL,4735.1156,N,01851.3139,E,100111,A,A*44
10:01:11.015 $GPVTG,46.6,T,40.9,M,5.0,N,9.3,K,A*25
10:01:11.020 $IIHDG,40.9,,,5.7,E*1D
10:01:11.025 $WIMWV,349.8,R,9.1,N,A*2D
10:01:11.030 $WIMWV,349.8,T,8.1,N,A*2A
10:01:11.035 $WIMWD,36.3,T,30.6,M,8.1,N,4.2,M*56
10:01:11.040 $IIVHW,46.6,T,40.9,M,5.0,N,9.3,K*53
10:01:12.000 $GPRMC,100112,A,4735.1165,N,01851.3154,E,5.0,46.6,040626,5.7,E,A*25
10:01:12.005 $GPGGA,100112,4735.1165,N,01851.3154,E,1,10,0.9,105.0,M,40.0,M,,*41
10:01:12.010 $GPGLL,4735.1165,N,01851.3154,E,100112,A,A*4C
10:01:12.015 $GPVTG,46.6,T,40.9,M,5.0,N,9.3,K,A*25
10:01:12.020 $IIHDG,40.9,,,5.7,E*1D
10:01:12.025 $WIMWV,349.8,R,9.1,N,A*2D
10:01:12.030 $WIMWV,349.8,T,8.1,N,A*2A
10:01:12.035 $WIMWD,36.4,T,30.7,M,8.1,N,4.2,M*50
10:01:12.040 $IIVHW,46.6,T,40.9,M,5.0,N,9.3,K*53
10:01:13.000 $GPRMC,100113,A,4735.1175,N,01851.3169,E,5.0,46.6,040626,5.7,E,A*2B
10:01:13.005 $GPGGA,100113,4735.1175,N,01851.3169,E,1,10,0.9,105.0,M,40.0,M,,*4F
10:01:13.010 $GPGLL,4735.1175,N,01851.3169,E,100113,A,A*42
10:01:13.015 $GPVTG,46.6,T,40.9,M,5.0,N,9.3,K,A*25
10:01:13.020 $IIHDG,40.9,,,5.7,E*1D
10:01:13.025 $WIMWV,349.8,R,9.1,N,A*2D
10:01:13.030 $WIMWV,349.8,T,8.1,N,A*2A
10:01:13.035 $WIMWD,36.4,T,30.7,M,8.1,N,4.2,M*50
10:01:13.040 $IIVHW,46.6,T,40.9,M,5.0,N,9.3,K*53
10:01:14.000 $GPRMC,100114,A,4735.1184,N,01851.3184,E,5.0,46.6,040626,5.7,E,A*21
10:01:14.005 $GPGGA,100114,4735.1184,N,01851.3184,E,1,10,0.9,105.0,M,40.0,M,,*45
10:01:14.010 $GPGLL,4735.1184,N,01851.3184,E,100114,A,A*48
10:01:14.015 $GPVTG,46.6,T,40.9,M,5.0,N,9.3,K,A*25
10:01:14.020 $IIHDG,40.9,,,5.7,E*1D
10:01:14.025 $WIMWV,349.8,R,9.1,N,A*2D
10:01:14.030 $WIMWV,349.8,T,8.1,N,A*2A
10:01:14.035 $WIMWD,36.4,T,30.7,M,8.1,N,4.2,M*50
10:01:14.040 $IIVHW,46.6,T,40.9,M,5.0,N,9.3,K*53
10:01:15.000 $GPRMC,100115,A,4735.1194,N,01851.3198,E,5.0,46.6,040626,5.7,E,A*2C
10:01:15.005 $GPGGA,100115,4735.1194,N,01851.3198,E,1,10,0.9,105.0,M,40.0,M,,*48
10:01:15.010 $GPGLL,4735.1194,N,01851.3198,E,100115,A,A*45
10:01:15.015 $GPVTG,46.6,T,40.9,M,5.0,N,9.3,K,A*25
10:01:15.020 $IIHDG,40.9,,,5.7,E*1D
10:01:15.025 $WIMWV,349.9,R,9.1,N,A*2C
10:01:15.030 $WIMWV,349.9,T,8.1,N,A*2B
10:01:15.035 $WIMWD,36.4,T,30.7,M,8.1,N,4.2,M*50
10:01:15.040 $IIVHW,46.6,T,40.9,M,5.0,N,9.3,K*53
10:01:16.000 $GPRMC,100116,A,4735.1203,N,01851.3213,E,5.0,46.6,040626,5.7,E,A*22
10:01:16.005 $GPGGA,100116,4735.1203,N,01851.3213,E,1,10,0.9,105.0,M,40.0,M,,*46
10:01:16.010 $GPGLL,4735.1203,N,01851.3213,E,100116,A,A*4B
10:01:16.015 $GPVTG,46.6,T,40.9,M,5.0,N,9.3,K,A*25
10:01:16.020 $IIHDG,40.9,,,5.7,E*1D
10:01:16.025 $WIMWV,349.9,R,9.1,N,A*2C
10:01:16.030 $WIMWV,349.9,T,8.1,N,A*2B
10:01:16.035 $WIMWD,36.4,T,30.7,M,8.1,N,4.2,M*50
10:01:16.040 $IIVHW,46.6,T,40.9,M,5.0,N,9.3,K*53
10:01:17.000 $GPRMC,100117,A,4735.1213,N,01851.3228,E,5.0,46.6,040626,5.7,E,A*2A
10:01:17.005 $GPGGA,100117,4735.1213,N,01851.3228,E,1,10,0.9,105.0,M,40.0,M,,*4E
10:01:17.010 $GPGLL,4735.1213,N,01851.3228,E,100117,A,A*43
10:01:17.015 $GPVTG,46.6,T,40.9,M,5.0,N,9.3,K,A*25
10:01:17.020 $IIHDG,40.9,,,5.7,E*1D
10:01:17.025 $WIMWV,349.9,R,9.1,N,A*2C
10:01:17.030 $WIMWV,349.9,T,8.1,N,A*2B
10:01:17.035 $WIMWD,36.5,T,30.8,M,8.1,N,4.2,M*5E
10:01:17.040 $IIVHW,46.6,T,40.9,M,5.0,N,9.3,K*53
10:01:18.000 $GPRMC,100118,A,4735.1222,N,01851.3243,E,5.0,46.6,040626,5.7,E,A*2A
10:01:18.005 $GPGGA,100118,4735.1222,N,01851.3243,E,1,10,0.9,105.0,M,40.0,M,,*4E
10:01:18.010 $GPGLL,4735.1222,N,01851.3243,E,100118,A,A*43
10:01:18.015 $GPVTG,46.6,T,40.9,M,5.0,N,9.3,K,A*25
10:01:18.020 $IIHDG,40.9,,,5.7,E*1D
10:01:18.025 $WIMWV,349.9,R,9.1,N,A*2C
10:01:18.030 $WIMWV,349.9,T,8.1,N,A*2B
10:01:18.035 $WIMWD,36.5,T,30.8,M,8.1,N,4.2,M*5E
10:01:18.040 $IIVHW,46.6,T,40.9,M,5.0,N,9.3,K*53
10:01:19.000 $GPRMC,100119,A,4735.1232,N,01851.3258,E,5.0,46.6,040626,5.7,E,A*20
10:01:19.005 $GPGGA,100119,4735.1232,N,01851.3258,E,1,10,0.9,105.0,M,40.0,M,,*44
10:01:19.010 $GPGLL,4735.1232,N,01851.3258,E,100119,A,A*49
10:01:19.015 $GPVTG,46.6,T,40.9,M,5.0,N,9.3,K,A*25
10:01:19.020 $IIHDG,40.9,,,5.7,E*1D
10:01:19.025 $WIMWV,349.9,R,9.1,N,A*2C
10:01:19.030 $WIMWV,349.9,T,8.1,N,A*2B
10:01:19.035 $WIMWD,36.5,T,30.8,M,8.1,N,4.2,M*5E
10:01:19.040 $IIVHW,46.6,T,40.9,M,5.0,N,9.3,K*53
10:01:20.000 $GPRMC,100120,A,4735.1242,N,01851.3273,E,5.0,46.6,040626,5.7,E,A*24
10:01:20.005 $GPGGA,100120,4735.1242,N,01851.3273,E,1,10,0.9,105.0,M,40.0,M,,*40
10:01:20.010 $GPGLL,4735.1242,N,01851.3273,E,100120,A,A*4D
10:01:20.015 $GPVTG,46.6,T,40.9,M,5.0,N,9.3,K,A*25
10:01:20.020 $IIHDG,40.9,,,5.7,E*1D
10:01:20.025 $WIMWV,349.9,R,9.1,N,A*2C
10:01:20.030 $WIMWV,349.9,T,8.1,N,A*2B
10:01:20.035 $WIMWD,36.5,T,30.8,M,8.1,N,4.2,M*5E
10:01:20.040 $IIVHW,46.6,T,40.9,M,5.0,N,9.3,K*53
10:01:21.000 $GPRMC,100121,A,4735.1251,N,01851.3288,E,5.0,46.6,040626,5.7,E,A*23
10:01:21.005 $GPGGA,100121,4735.1251,N,01851.3288,E,1,10,0.9,105.0,M,40.0,M,,*47
10:01:21.010 $GPGLL,4735.1251,N,01851.3288,E,100121,A,A*4A
10:01:21.015 $GPVTG,46.6,T,40.9,M,5.0,N,9.3,K,A*25
10:01:21.020 $IIHDG,40.9,,,5.7,E*1D
10:01:21.025 $WIMWV,350.0,R,9.1,N,A*2D
10:01:21.030 $WIMWV,350.0,T,8.1,N,A*2A
10:01:21.035 $WIMWD,36.5,T,30.8,M,8.1,N,4.2,M*5E
10:01:21.040 $IIVHW,46.6,T,40.9,M,5.0,N,9.3,K*53
10:01:22.000 $GPRMC,100122,A,4735.1261,N,01851.3303,E,5.0,46.6,040626,5.7,E,A*21
10:01:22.005 $GPGGA,100122,4735.1261,N,01851.3303,E,1,10,0.9,105.0,M,40.0,M,,*45
10:01:22.010 $GPGLL,4735.1261,N,01851.3303,E,100122,A,A*48
10:01:22.015 $GPVTG,46.6,T,40.9,M,5.0,N,9.3,K,A*25
10:01:22.020 $IIHDG,40.9,,,5.7,E*1D
10:01:22.025 $WIMWV,350.0,R,9.1,N,A*2D
10:01:22.030 $WIMWV,350.0,T,8.1,N,A*2A
10:01:22.035 $WIMWD,36.5,T,30.8,M,8.1,N,4.2,M*5E
10:01:22.040 $IIVHW,46.6,T,40.9,M,5.0,N,9.3,K*53
10:01:23.000 $GPRMC,100123,A,4735.1270,N,01851.3318,E,5.0,46.6,040626,5.7,E,A*2A
10:01:23.005 $GPGGA,100123,4735.1270,N,01851.3318,E,1,10,0.9,105.0,M,40.0,M,,*4E
10:01:23.010 $GPGLL,4735.1270,N,01851.3318,E,100123,A,A*43
10:01:23.015 $GPVTG,46.6,T,40.9,M,5.0,N,9.3,K,A*25
10:01:23.020 $IIHDG,40.9,,,5.7,E*1D
10:01:23.025 $WIMWV,350.0,R,9.1,N,A*2D
10:01:23.030 $WIMWV,350.0,T,8.1,N,A*2A
10:01:23.035 $WIMWD,36.6,T,30.9,M,8.1,N,4.2,M*5C
10:01:23.040 $IIVHW,46.6,T,40.9,M,5.0,N,9.3,K*53
10:01:24.000 $GPRMC,100124,A,4735.1280,N,01851.3333,E,5.0,46.6,040626,5.7,E,A*2B
10:01:24.005 $GPGGA,100124,4735.1280,N,01851.3333,E,1,10,0.9,105.0,M,40.0,M,,*4F
10:01:24.010 $GPGLL,4735.1280,N,01851.3333,E,100124,A,A*42
10:01:24.015 $GPVTG,46.6,T,40.9,M,5.0,N,9.3,K,A*25
10:01:24.020 $IIHDG,40.9,,,5.7,E*1D
10:01:24.025 $WIMWV,350.0,R,9.1,N,A*2D
10:01:24.030 $WIMWV,350.0,T,8.1,N,A*2A
10:01:24.035 $WIMWD,36.6,T,30.9,M,8.1,N,4.2,M*5C
10:01:24.040 $IIVHW,46.6,T,40.9,M,5.0,N,9.3,K*53
10:01:25.000 $GPRMC,100125,A,4735.1289,N,01851.3348,E,5.0,46.6,040626,5.7,E,A*2F
10:01:25.005 $GPGGA,100125,4735.1289,N,01851.3348,E,1,10,0.9,105.0,M,40.0,M,,*4B
10:01:25.010 $GPGLL,4735.1289,N,01851.3348,E,100125,A,A*46
10:01:25.015 $GPVTG,46.6,T,40.9,M,5.0,N,9.3,K,A*25
10:01:25.020 $IIHDG,40.9,,,5.7,E*1D
10:01:25.025 $WIMWV,350.0,R,9.1,N,A*2D
10:01:25.030 $WIMWV,350.0,T,8.1,N,A*2A
10:01:25.035 $WIMWD,36.6,T,30.9,M,8.1,N,4.2,M*5C
10:01:25.040 $IIVHW,46.6,T,40.9,M,5.0,N,9.3,K*53
10:01:26.000 $GPRMC,100126,A,4735.1299,N,01851.3363,E,5.0,46.6,040626,5.7,E,A*24
10:01:26.005 $GPGGA,100126,4735.1299,N,01851.3363,E,1,10,0.9,105.0,M,40.0,M,,*40
10:01:26.010 $GPGLL,4735.1299,N,01851.3363,E,100126,A,A*4D
10:01:26.015 $GPVTG,46.6,T,40.9,M,5.0,N,9.3,K,A*25
10:01:26.020 $IIHDG,40.9,,,5.7,E*1D
10:01:26.025 $WIMWV,350.1,R,9.1,N,A*2C
10:01:26.030 $WIMWV,350.1,T,8.1,N,A*2B
10:01:26.035 $WIMWD,36.6,T,30.9,M,8.1,N,4.2,M*5C
10:01:26.040 $IIVHW,46.6,T,40.9,M,5.0,N,9.3,K*53
10:01:27.000 $GPRMC,100127,A,4735.1308,N,01851.3378,E,5.0,46.6,040626,5.7,E,A*26
10:01:27.005 $GPGGA,100127,4735.1308,N,01851.3378,E,1,10,0.9,105.0,M,40.0,M,,*42
10:01:27.010 $GPGLL,4735.1308,N,01851.3378,E,100127,A,A*4F
10:01:27.015 $GPVTG,46.6,T,40.9,M,5.0,N,9.3,K,A*25
10:01:27.020 $IIHDG,40.9,,,5.7,E*1D
10:01:27.025 $WIMWV,350.1,R,9.1,N,A*2C
10:01:27.030 $WIMWV,350.1,T,8.1,N,A*2B
10:01:27.035 $WIMWD,36.6,T,30.9,M,8.1,N,4.2,M*5C
10:01:27.040 $IIVHW,46.6,T,40.9,M,5.0,N,9.3,K*53
10:01:28.000 $GPRMC,100128,A,4735.1318,N,01851.3393,E,5.0,46.6,040626,5.7,E,A*2D
10:01:28.005 $GPGGA,100128,4735.1318,N,01851.3393,E,1,10,0.9,105.0,M,40.0,M,,*49
10:01:28.010 $GPGLL,4735.1318,N,01851.3393,E,100128,A,A*44
10:01:28.015 $GPVTG,46.6,T,40.9,M,5.0,N,9.3,K,A*25
10:01:28.020 $IIHDG,40.9,,,5.7,E*1D
10:01:28.025 $WIMWV,350.1,R,9.1,N,A*2C
10:01:28.030 $WIMWV,350.1,T,8.1,N,A*2B
10:01:28.035 $WIMWD,36.7,T,31.0,M,8.1,N,4.2,M*55
10:01:28.040 $IIVHW,46.6,T,40.9,M,5.0,N,9.3,K*53
10:01:29.000 $GPRMC,100129,A,4735.1327,N,01851.3408,E,5.0,46.6,040626,5.7,E,A*25
10:01:29.005 $GPGGA,100129,4735.1327,N,01851.3408,E,1,10,0.9,105.0,M,40.0,M,,*41
10:01:29.010 $GPGLL,4735.1327,N,01851.3408,E,100129,A,A*4C
10:01:29.015 $GPVTG,46.6,T,40.9,M,5.0,N,9.3,K,A*25
10:01:29.020 $IIHDG,40.9,,,5.7,E*1D
10:01:29.025 $WIMWV,350.1,R,9.1,N,A*2C
10:01:29.030 $WIMWV,350.1,T,8.1,N,A*2B
10:01:29.035 $WIMWD,36.7,T,31.0,M,8.1,N,4.2,M*55
10:01:29.040 $IIVHW,46.6,T,40.9,M,5.0,N,9.3,K*53
10:01:30.000 $GPRMC,100130,A,4735.1337,N,01851.3423,E,5.0,46.6,040626,5.7,E,A*25
10:01:30.005 $GPGGA,100130,4735.1337,N,01851.3423,E,1,10,0.9,105.0,M,40.0,M,,*41
10:01:30.010 $GPGLL,4735.1337,N,01851.3423,E,100130,A,A*4C
10:01:30.015 $GPVTG,46.6,T,40.9,M,5.0,N,9.3,K,A*25
10:01:30.020 $IIHDG,40.9,,,5.7,E*1D
10:01:30.025 $WIMWV,350.1,R,9.1,N,A*2C
10:01:30.030 $WIMWV,350.1,T,8.1,N,A*2B
10:01:30.035 $WIMWD,36.7,T,31.0,M,8.1,N,4.2,M*55
10:01:30.040 $IIVHW,46.6,T,40.9,M,5.0,N,9.3,K*53
10:01:31.000 $GPRMC,100131,A,4735.1346,N,01851.3438,E,5.0,46.6,040626,5.7,E,A*28
10:01:31.005 $GPGGA,100131,4735.1346,N,01851.3438,E,1,10,0.9,105.0,M,40.0,M,,*4C
10:01:31.010 $GPGLL,4735.1346,N,01851.3438,E,100131,A,A*41
10:01:31.015 $GPVTG,46.6,T,40.9,M,5.0,N,9.3,K,A*25
10:01:31.020 $IIHDG,40.9,,,5.7,E*1D
10:01:31.025 $WIMWV,350.2,R,9.1,N,A*2F
10:01:31.030 $WIMWV,350.2,T,8.1,N,A*28
10:01:31.035 $WIMWD,36.7,T,31.0,M,8.1,N,4.2,M*55
10:01:31.040 $IIVHW,46.6,T,40.9,M,5.0,N,9.3,K*53
10:01:32.000 $GPRMC,100132,A,4735.1356,N,01851.3452,E,5.0,46.6,040626,5.7,E,A*26
10:01:32.005 $GPGGA,100132,4735.1356,N,01851.3452,E,1,10,0.9,105.0,M,40.0,M,,*42
10:01:32.010 $GPGLL,4735.1356,N,01851.3452,E,100132,A,A*4F
10:01:32.015 $GPVTG,46.6,T,40.9,M,5.0,N,9.3,K,A*25
10:01:32.020 $IIHDG,40.9,,,5.7,E*1D
10:01:32.025 $WIMWV,350.2,R,9.1,N,A*2F
10:01:32.030 $WIMWV,350.2,T,8.1,N,A*28
10:01:32.035 $WIMWD,36.7,T,31.0,M,8.1,N,4.2,M*55
10:01:32.040 $IIVHW,46.6,T,40.9,M,5.0,N,9.3,K*53
10:01:33.000 $GPRMC,100133,A,4735.1366,N,01851.3467,E,5.0,46.6,040626,5.7,E,A*22
10:01:33.005 $GPGGA,100133,4735.1366,N,01851.3467,E,1,10,0.9,105.0,M,40.0,M,,*46
10:01:33.010 $GPGLL,4735.1366,N,01851.3467,E,100133,A,A*4B
10:01:33.015 $GPVTG,46.6,T,40.9,M,5.0,N,9.3,K,A*25
10:01:33.020 $IIHDG,40.9,,,5.7,E*1D
10:01:33.025 $WIMWV,350.2,R,9.1,N,A*2F
10:01:33.030 $WIMWV,350.2,T,8.1,N,A*28
10:01:33.035 $WIMWD,36.8,T,31.1,M,8.1,N,4.2,M*5B
10:01:33.040 $IIVHW,46.6,T,40.9,M,5.0,N,9.3,K*53
10:01:34.000 $GPRMC,100134,A,4735.1375,N,01851.3482,E,5.0,46.6,040626,5.7,E,A*2C
10:01:34.005 $GPGGA,100134,4735.1375,N,01851.3482,E,1,10,0.9,105.0,M,40.0,M,,*48
10:01:34.010 $GPGLL,4735.1375,N,01851.3482,E,100134,A,A*45
10:01:34.015 $GPVTG,46.6,T,40.9,M,5.0,N,9.3,K,A*25
10:01:34.020 $IIHDG,40.9,,,5.7,E*1D
10:01:34.025 $WIMWV,350.2,R,9.1,N,A*2F
10:01:34.030 $WIMWV,350.2,T,8.1,N,A*28
10:01:34.035 $WIMWD,36.8,T,31.1,M,8.1,N,4.2,M*5B
10:01:34.040 $IIVHW,46.6,T,40.9,M,5.0,N,9.3,K*53
10:01:35.000 $GPRMC,100135,A,4735.1385,N,01851.3497,E,5.0,46.6,040626,5.7,E,A*26
10:01:35.005 $GPGGA,100135,4735.1385,N,01851.3497,E,1,10,0.9,105.0,M,40.0,M,,*42
10:01:35.010 $GPGLL,4735.1385,N,01851.3497,E,100135,A,A*4F
10:01:35.015 $GPVTG,46.6,T,40.9,M,5.0,N,9.3,K,A*25
10:01:35.020 $IIHDG,40.9,,,5.7,E*1D
10:01:35.025 $WIMWV,350.2,R,9.1,N,A*2F
10:01:35.030 $WIMWV,350.2,T,8.1,N,A*28
10:01:35.035 $WIMWD,36.8,T,31.1,M,8.1,N,4.2,M*5B
10:01:35.040 $IIVHW,46.6,T,40.9,M,5.0,N,9.3,K*53
10:01:36.000 $GPRMC,100136,A,4735.1394,N,01851.3512,E,5.0,46.6,040626,5.7,E,A*29
10:01:36.005 $GPGGA,100136,4735.1394,N,01851.3512,E,1,10,0.9,105.0,M,40.0,M,,*4D
10:01:36.010 $GPGLL,4735.1394,N,01851.3512,E,100136,A,A*40
10:01:36.015 $GPVTG,46.6,T,40.9,M,5.0,N,9.3,K,A*25
10:01:36.020 $IIHDG,40.9,,,5.7,E*1D
10:01:36.025 $WIMWV,350.2,R,9.1,N,A*2F
10:01:36.030 $WIMWV,350.2,T,8.1,N,A*28
10:01:36.035 $WIMWD,36.8,T,31.1,M,8.1,N,4.2,M*5B
10:01:36.040 $IIVHW,46.6,T,40.9,M,5.0,N,9.3,K*53
10:01:37.000 $GPRMC,100137,A,4735.1404,N,01851.3527,E,5.0,46.6,040626,5.7,E,A*20
10:01:37.005 $GPGGA,100137,4735.1404,N,01851.3527,E,1,10,0.9,105.0,M,40.0,M,,*44
10:01:37.010 $GPGLL,4735.1404,N,01851.3527,E,100137,A,A*49
10:01:37.015 $GPVTG,46.6,T,40.9,M,5.0,N,9.3,K,A*25
10:01:37.020 $IIHDG,40.9,,,5.7,E*1D
10:01:37.025 $WIMWV,350.3,R,9.1,N,A*2E
10:01:37.030 $WIMWV,350.3,T,8.1,N,A*29
10:01:37.035 $WIMWD,36.8,T,31.1,M,8.1,N,4.2,M*5B
10:01:37.040 $IIVHW,46.6,T,40.9,M,5.0,N,9.3,K*53
10:01:38.000 $GPRMC,100138,A,4735.1413,N,01851.3542,E,5.0,46.6,040626,5.7,E,A*2A
10:01:38.005 $GPGGA,100138,4735.1413,N,01851.3542,E,1,10,0.9,105.0,M,40.0,M,,*4E
10:01:38.010 $GPGLL,4735.1413,N,01851.3542,E,100138,A,A*43
10:01:38.015 $GPVTG,46.6,T,40.9,M,5.0,N,9.3,K,A*25
10:01:38.020 $IIHDG,40.9,,,5.7,E*1D
10:01:38.025 $WIMWV,350.3,R,9.1,N,A*2E
10:01:38.030 $WIMWV,350.3,T,8.1,N,A*29
10:01:38.035 $WIMWD,36.8,T,31.1,M,8.1,N,4.2,M*5B
10:01:38.040 $IIVHW,46.6,T,40.9,M,5.0,N,9.3,K*53
10:01:39.000 $GPRMC,100139,A,4735.1423,N,01851.3557,E,5.0,46.6,040626,5.7,E,A*2C
10:01:39.005 $GPGGA,100139,4735.1423,N,01851.3557,E,1,10,0.9,105.0,M,40.0,M,,*48
10:01:39.010 $GPGLL,4735.1423,N,01851.3557,E,100139,A,A*45
10:01:39.015 $GPVTG,46.6,T,40.9,M,5.0,N,9.3,K,A*25
10:01:39.020 $IIHDG,40.9,,,5.7,E*1D
10:01:39.025 $WIMWV,350.3,R,9.1,N,A*2E
10:01:39.030 $WIMWV,350.3,T,8.1,N,A*29
10:01:39.035 $WIMWD,36.9,T,31.2,M,8.1,N,4.2,M*59
10:01:39.040 $IIVHW,46.6,T,40.9,M,5.0,N,9.3,K*53
10:01:40.000 $GPRMC,100140,A,4735.1432,N,01851.3572,E,5.0,46.6,040626,5.7,E,A*25
10:01:40.005 $GPGGA,100140,4735.1432,N,01851.3572,E,1,10,0.9,105.0,M,40.0,M,,*41
10:01:40.010 $GPGLL,4735.1432,N,01851.3572,E,100140,A,A*4C
10:01:40.015 $GPVTG,46.6,T,40.9,M,5.0,N,9.3,K,A*25
10:01:40.020 $IIHDG,40.9,,,5.7,E*1D
10:01:40.025 $WIMWV,350.3,R,9.1,N,A*2E
10:01:40.030 $WIMWV,350.3,T,8.1,N,A*29
10:01:40.035 $WIMWD,36.9,T,31.2,M,8.1,N,4.2,M*59
10:01:40.040 $IIVHW,46.6,T,40.9,M,5.0,N,9.3,K*53
10:01:41.000 $GPRMC,100141,A,4735.1442,N,01851.3587,E,5.0,46.6,040626,5.7,E,A*29
10:01:41.005 $GPGGA,100141,4735.1442,N,01851.3587,E,1,10,0.9,105.0,M,40.0,M,,*4D
10:01:41.010 $GPGLL,4735.1442,N,01851.3587,E,100141,A,A*40
10:01:41.015 $GPVTG,46.6,T,40.9,M,5.0,N,9.3,K,A*25
10:01:41.020 $IIHDG,40.9,,,5.7,E*1D
10:01:41.025 $WIMWV,350.3,R,9.1,N,A*2E
10:01:41.030 $WIMWV,350.3,T,8.1,N,A*29
10:01:41.035 $WIMWD,36.9,T,31.2,M,8.1,N,4.2,M*59
10:01:41.040 $IIVHW,46.6,T,40.9,M,5.0,N,9.3,K*53
10:01:42.000 $GPRMC,100142,A,4735.1451,N,01851.3602,E,5.0,46.6,040626,5.7,E,A*26
10:01:42.005 $GPGGA,100142,4735.1451,N,01851.3602,E,1,10,0.9,105.0,M,40.0,M,,*42
10:01:42.010 $GPGLL,4735.1451,N,01851.3602,E,100142,A,A*4F
10:01:42.015 $GPVTG,46.6,T,40.9,M,5.0,N,9.3,K,A*25
10:01:42.020 $IIHDG,40.9,,,5.7,E*1D
10:01:42.025 $WIMWV,350.4,R,9.1,N,A*29
10:01:42.030 $WIMWV,350.4,T,8.1,N,A*2E
10:01:42.035 $WIMWD,36.9,T,31.2,M,8.1,N,4.2,M*59
10:01:42.040 $IIVHW,46.6,T,40.9,M,5.0,N,9.3,K*53
10:01:43.000 $GPRMC,100143,A,4735.1461,N,01851.3617,E,5.0,46.6,040626,5.7,E,A*20
10:01:43.005 $GPGGA,100143,4735.1461,N,01851.3617,E,1,10,0.9,105.0,M,40.0,M,,*44
10:01:43.010 $GPGLL,4735.1461,N,01851.3617,E,100143,A,A*49
10:01:43.015 $GPVTG,46.6,T,40.9,M,5.0,N,9.3,K,A*25
10:01:43.020 $IIHDG,40.9,,,5.7,E*1D
10:01:43.025 $WIMWV,350.4,R,9.1,N,A*29
10:01:43.030 $WIMWV,350.4,T,8.1,N,A*2E
10:01:43.035 $WIMWD,36.9,T,31.2,M,8.1,N,4.2,M*59
10:01:43.040 $IIVHW,46.6,T,40.9,M,5.0,N,9.3,K*53
10:01:44.000 $GPRMC,100144,A,4735.1471,N,01851.3632,E,5.0,46.6,040626,5.7,E,A*21
10:01:44.005 $GPGGA,100144,4735.1471,N,01851.3632,E,1,10,0.9,105.0,M,40.0,M,,*45
10:01:44.010 $GPGLL,4735.1471,N,01851.3632,E,100144,A,A*48
10:01:44.015 $GPVTG,46.6,T,40.9,M,5.0,N,9.3,K,A*25
10:01:44.020 $IIHDG,40.9,,,5.7,E*1D
10:01:44.025 $WIMWV,350.4,R,9.1,N,A*29
10:01:44.030 $WIMWV,350.4,T,8.1,N,A*2E
10:01:44.035 $WIMWD,37.0,T,31.3,M,8.1,N,4.2,M*50
10:01:44.040 $IIVHW,46.6,T,40.9,M,5.0,N,9.3,K*53
10:01:45.000 $GPRMC,100145,A,4735.1480,N,01851.3647,E,5.0,46.6,040626,5.7,E,A*2C
10:01:45.005 $GPGGA,100145,4735.1480,N,01851.3647,E,1,10,0.9,105.0,M,40.0,M,,*48
10:01:45.010 $GPGLL,4735.1480,N,01851.3647,E,100145,A,A*45
10:01:45.015 $GPVTG,46.6,T,40.9,M,5.0,N,9.3,K,A*25
10:01:45.020 $IIHDG,40.9,,,5.7,E*1D
10:01:45.025 $WIMWV,350.4,R,9.1,N,A*29
10:01:45.030 $WIMWV,350.4,T,8.1,N,A*2E
10:01:45.035 $WIMWD,37.0,T,31.3,M,8.1,N,4.2,M*50
10:01:45.040 $IIVHW,46.6,T,40.9,M,5.0,N,9.3,K*53
10:01:46.000 $GPRMC,100146,A,4735.1490,N,01851.3662,E,5.0,46.6,040626,5.7,E,A*29
10:01:46.005 $GPGGA,100146,4735.1490,N,01851.3662,E,1,10,0.9,105.0,M,40.0,M,,*4D
10:01:46.010 $GPGLL,4735.1490,N,01851.3662,E,100146,A,A*40
10:01:46.015 $GPVTG,46.6,T,40.9,M,5.0,N,9.3,K,A*25
10:01:46.020 $IIHDG,40.9,,,5.7,E*1D
10:01:46.025 $WIMWV,350.4,R,9.1,N,A*29
10:01:46.030 $WIMWV,350.4,T,8.1,N,A*2E
10:01:46.035 $WIMWD,37.0,T,31.3,M,8.1,N,4.2,M*50
10:01:46.040 $IIVHW,46.6,T,40.9,M,5.0,N,9.3,K*53
