1780744645	$GPRMC,111719,A,4656.0827,N,01802.4336,E,7.5,307.2,060626,5.7,E,A*12
1780744646	$WIMWV,309.0,T,11.2,N,A*1D
1780744646	$GPRMC,111720,A,4656.0840,N,01802.4312,E,7.4,304.2,060626,5.7,E,A*1D
1780744647	$WIMWV,311.8,T,10.9,N,A*16
1780744647	$WIMWV,311.8,T,10.9,N,A*16
1780744647	$GPRMC,111721,A,4656.0850,N,01802.4287,E,7.3,305.3,060626,5.7,E,A*17
1780744647	$GPRMC,111721,A,4656.0850,N,01802.4287,E,7.3,305.3,060626,5.7,E,A*17
1780744648	$WIMWV,312.5,T,10.5,N,A*14
1780744648	$WIMWV,312.5,T,10.5,N,A*14
1780744648	$GPRMC,111722,A,4656.0863,N,01802.4262,E,7.3,304.8,060626,5.7,E,A*15
1780744648	$GPRMC,111722,A,4656.0863,N,01802.4262,E,7.3,304.8,060626,5.7,E,A*15
1780744649	$WIMWV,309.7,T,9.8,N,A*29
1780744649	$GPRMC,111723,A,4656.0875,N,01802.4238,E,7.4,307.5,060626,5.7,E,A*15
1780744649	$WIMWV,309.7,T,9.8,N,A*29
1780744649	$GPRMC,111723,A,4656.0875,N,01802.4238,E,7.4,307.5,060626,5.7,E,A*15
1780744650	$WIMWV,304.5,T,10.6,N,A*10
1780744650	$GPRMC,111724,A,4656.0888,N,01802.4216,E,7.4,308.6,060626,5.7,E,A*10
1780744650	$WIMWV,304.5,T,10.6,N,A*10
1780744650	$GPRMC,111724,A,4656.0888,N,01802.4216,E,7.4,308.6,060626,5.7,E,A*10
1780744651	$WIMWV,311.6,T,10.5,N,A*14
1780744651	$GPRMC,111725,A,4656.0899,N,01802.4191,E,7.4,307.8,060626,5.7,E,A*1C
1780744651	$WIMWV,311.6,T,10.5,N,A*14
1780744651	$GPRMC,111725,A,4656.0899,N,01802.4191,E,7.4,307.8,060626,5.7,E,A*1C
1780744652	$WIMWV,310.5,T,9.0,N,A*2B
1780744652	$GPRMC,111726,A,4656.0913,N,01802.4168,E,7.4,309.9,060626,5.7,E,A*15
1780744652	$WIMWV,310.5,T,9.0,N,A*2B
1780744652	$GPRMC,111726,A,4656.0913,N,01802.4168,E,7.4,309.9,060626,5.7,E,A*15
1780744653	$WIMWV,308.5,T,9.9,N,A*2B
1780744653	$GPRMC,111727,A,4656.0926,N,01802.4146,E,7.2,309.8,060626,5.7,E,A*19
1780744653	$WIMWV,308.5,T,9.9,N,A*2B
1780744653	$GPRMC,111727,A,4656.0926,N,01802.4146,E,7.2,309.8,060626,5.7,E,A*19
1780744654	$WIMWV,321.0,T,9.5,N,A*29
1780744654	$GPRMC,111728,A,4656.0938,N,01802.4124,E,7.4,308.5,060626,5.7,E,A*17
1780744654	$WIMWV,321.0,T,9.5,N,A*29
1780744654	$GPRMC,111728,A,4656.0938,N,01802.4124,E,7.4,308.5,060626,5.7,E,A*17
1780744655	$WIMWV,318.7,T,9.3,N,A*22
1780744655	$GPRMC,111729,A,4656.0950,N,01802.4101,E,7.4,306.5,060626,5.7,E,A*11
1780744655	$WIMWV,318.7,T,9.3,N,A*22
1780744655	$GPRMC,111729,A,4656.0950,N,01802.4101,E,7.4,306.5,060626,5.7,E,A*11
1780744656	$WIMWV,316.4,T,9.7,N,A*2B
1780744656	$GPRMC,111730,A,4656.0963,N,01802.4075,E,7.2,304.8,060626,5.7,E,A*12
1780744656	$WIMWV,316.4,T,9.7,N,A*2B
1780744656	$GPRMC,111730,A,4656.0963,N,01802.4075,E,7.2,304.8,060626,5.7,E,A*12
1780744657	$WIMWV,313.2,T,10.4,N,A*13
1780744657	$GPRMC,111731,A,4656.0973,N,01802.4057,E,7.1,302.6,060626,5.7,E,A*19
1780744657	$WIMWV,313.2,T,10.4,N,A*13
1780744657	$GPRMC,111731,A,4656.0973,N,01802.4057,E,7.1,302.6,060626,5.7,E,A*19
1780744658	$WIMWV,313.1,T,9.3,N,A*2F
1780744658	$GPRMC,111732,A,4656.0988,N,01802.4029,E,7.3,303.7,060626,5.7,E,A*15
1780744658	$WIMWV,313.1,T,9.3,N,A*2F
1780744658	$GPRMC,111732,A,4656.0988,N,01802.4029,E,7.3,303.7,060626,5.7,E,A*15
1780744659	$WIMWV,306.9,T,9.1,N,A*21
1780744659	$GPRMC,111733,A,4656.1000,N,01802.4003,E,7.2,306.6,060626,5.7,E,A*11
1780744659	$WIMWV,306.9,T,9.1,N,A*21
1780744659	$GPRMC,111733,A,4656.1000,N,01802.4003,E,7.2,306.6,060626,5.7,E,A*11
1780744660	$WIMWV,302.9,T,9.0,N,A*24
1780744660	$WIMWV,302.9,T,9.0,N,A*24
1780744660	$GPRMC,111734,A,4656.1011,N,01802.3981,E,7.2,308.5,060626,5.7,E,A*1F
1780744660	$GPRMC,111734,A,4656.1011,N,01802.3981,E,7.2,308.5,060626,5.7,E,A*1F
1780744661	$WIMWV,306.4,T,9.2,N,A*2F
1780744661	$WIMWV,306.4,T,9.2,N,A*2F
1780744661	$GPRMC,111735,A,4656.1024,N,01802.3954,E,7.3,308.9,060626,5.7,E,A*1D
1780744661	$GPRMC,111735,A,4656.1024,N,01802.3954,E,7.3,308.9,060626,5.7,E,A*1D
1780744662	$WIMWV,300.6,T,8.9,N,A*21
1780744662	$WIMWV,300.6,T,8.9,N,A*21
1780744662	$GPRMC,111736,A,4656.1038,N,01802.3931,E,7.4,312.5,060626,5.7,E,A*10
1780744662	$GPRMC,111736,A,4656.1038,N,01802.3931,E,7.4,312.5,060626,5.7,E,A*10
1780744663	$WIMWV,303.9,T,9.9,N,A*2C
1780744663	$WIMWV,303.9,T,9.9,N,A*2C
1780744663	$GPRMC,111737,A,4656.1050,N,01802.3909,E,7.3,310.2,060626,5.7,E,A*16
1780744664	$GPRMC,111737,A,4656.1050,N,01802.3909,E,7.3,310.2,060626,5.7,E,A*16
1780744664	$WIMWV,300.2,T,10.5,N,A*10
1780744664	$WIMWV,300.2,T,10.5,N,A*10
1780744664	$GPRMC,111738,A,4656.1061,N,01802.3888,E,7.3,310.4,060626,5.7,E,A*15
1780744664	$GPRMC,111738,A,4656.1061,N,01802.3888,E,7.3,310.4,060626,5.7,E,A*15
1780744665	$WIMWV,309.9,T,9.4,N,A*2B
1780744665	$WIMWV,309.9,T,9.4,N,A*2B
1780744665	$GPRMC,111739,A,4656.1075,N,01802.3864,E,7.2,308.2,060626,5.7,E,A*1D
1780744665	$GPRMC,111739,A,4656.1075,N,01802.3864,E,7.2,308.2,060626,5.7,E,A*1D
1780744666	$WIMWV,312.2,T,8.8,N,A*27
1780744666	$WIMWV,312.2,T,8.8,N,A*27
1780744666	$GPRMC,111740,A,4656.1087,N,01802.3841,E,7.4,309.7,060626,5.7,E,A*1B
1780744666	$GPRMC,111740,A,4656.1087,N,01802.3841,E,7.4,309.7,060626,5.7,E,A*1B
1780744667	$WIMWV,313.0,T,8.9,N,A*25
1780744667	$WIMWV,313.0,T,8.9,N,A*25
1780744667	$GPRMC,111741,A,4656.1101,N,01802.3818,E,7.4,308.4,060626,5.7,E,A*1B
1780744667	$GPRMC,111741,A,4656.1101,N,01802.3818,E,7.4,308.4,060626,5.7,E,A*1B
1780744668	$WIMWV,308.4,T,8.6,N,A*24
1780744668	$WIMWV,308.4,T,8.6,N,A*24
1780744668	$GPRMC,111742,A,4656.1114,N,01802.3796,E,7.3,307.5,060626,5.7,E,A*1C
1780744668	$GPRMC,111742,A,4656.1114,N,01802.3796,E,7.3,307.5,060626,5.7,E,A*1C
1780744669	$WIMWV,303.4,T,8.6,N,A*2F
1780744669	$WIMWV,303.4,T,8.6,N,A*2F
1780744670	$GPRMC,111743,A,4656.1128,N,01802.3772,E,7.3,312.6,060626,5.7,E,A*1F
1780744670	$WIMWV,303.4,T,8.5,N,A*2C
1780744670	$GPRMC,111743,A,4656.1128,N,01802.3772,E,7.3,312.6,060626,5.7,E,A*1F
1780744670	$WIMWV,303.4,T,8.5,N,A*2C
1780744672	$GPRMC,111744,A,4656.1140,N,01802.3748,E,7.3,313.8,060626,5.7,E,A*10
1780744672	$WIMWV,306.3,T,9.2,N,A*28
1780744672	$GPRMC,111745,A,4656.1155,N,01802.3723,E,7.2,312.5,060626,5.7,E,A*15
1780744673	$WIMWV,316.5,T,8.8,N,A*24
1780744673	$GPRMC,111746,A,4656.1171,N,01802.3703,E,7.3,312.9,060626,5.7,E,A*1F
1780744675	$WIMWV,314.3,T,10.2,N,A*13
1780744675	$GPRMC,111747,A,4656.1184,N,01802.3680,E,7.1,308.4,060626,5.7,E,A*1A
1780744675	$WIMWV,315.7,T,10.9,N,A*1D
1780744675	$GPRMC,111748,A,4656.1197,N,01802.3658,E,7.4,310.0,060626,5.7,E,A*1A
1780744675	$WIMWV,316.1,T,10.8,N,A*19
1780744676	$GPRMC,111749,A,4656.1209,N,01802.3635,E,7.2,305.4,060626,5.7,E,A*12
1780744676	$WIMWV,313.4,T,11.0,N,A*10
1780744676	$WIMWV,313.4,T,11.0,N,A*10
1780744677	$GPRMC,111750,A,4656.1218,N,01802.3615,E,7.2,305.0,060626,5.7,E,A*1C
1780744677	$GPRMC,111750,A,4656.1218,N,01802.3615,E,7.2,305.0,060626,5.7,E,A*1C
1780744677	$WIMWV,313.5,T,11.8,N,A*19
1780744677	$WIMWV,313.5,T,11.8,N,A*19
1780744679	$GPRMC,111751,A,4656.1229,N,01802.3592,E,7.1,299.9,060626,5.7,E,A*1D
1780744679	$WIMWV,311.3,T,11.4,N,A*11
1780744679	$GPRMC,111752,A,4656.1238,N,01802.3568,E,7.1,300.6,060626,5.7,E,A*15
1780744680	$WIMWV,309.7,T,11.0,N,A*18
1780744680	$GPRMC,111753,A,4656.1248,N,01802.3544,E,7.2,299.2,060626,5.7,E,A*1B
1780744681	$WIMWV,311.9,T,10.1,N,A*1F
1780744681	$GPRMC,111754,A,4656.1259,N,01802.3519,E,7.2,303.4,060626,5.7,E,A*10
1780744681	$WIMWV,307.1,T,10.6,N,A*17
1780744681	$GPRMC,111755,A,4656.1269,N,01802.3495,E,7.3,303.8,060626,5.7,E,A*1A
1780744683	$WIMWV,309.2,T,10.6,N,A*1A
1780744683	$GPRMC,111756,A,4656.1281,N,01802.3471,E,7.4,302.2,060626,5.7,E,A*19
1780744683	$WIMWV,309.0,T,10.9,N,A*17
1780744684	$GPRMC,111757,A,4656.1293,N,01802.3445,E,7.4,303.5,060626,5.7,E,A*1A
1780744684	$WIMWV,313.9,T,11.0,N,A*1D
1780744685	$GPRMC,111758,A,4656.1305,N,01802.3423,E,7.4,301.5,060626,5.7,E,A*19
1780744685	$WIMWV,311.1,T,11.0,N,A*17
1780744686	$GPRMC,111759,A,4656.1317,N,01802.3397,E,7.4,303.0,060626,5.7,E,A*14
1780744686	$WIMWV,312.3,T,10.6,N,A*11
1780744687	$GPRMC,111800,A,4656.1329,N,01802.3371,E,7.4,303.7,060626,5.7,E,A*15
1780744687	$WIMWV,313.4,T,9.2,N,A*2B
1780744688	$GPRMC,111801,A,4656.1341,N,01802.3346,E,7.3,303.5,060626,5.7,E,A*1B
1780744688	$WIMWV,313.4,T,9.8,N,A*21
1780744689	$GPRMC,111802,A,4656.1353,N,01802.3323,E,7.3,305.0,060626,5.7,E,A*1B
1780744689	$WIMWV,309.5,T,10.3,N,A*18
1780744690	$GPRMC,111803,A,4656.1365,N,01802.3298,E,7.3,306.4,060626,5.7,E,A*19
1780744690	$WIMWV,311.8,T,10.5,N,A*1A
1780744691	$GPRMC,111804,A,4656.1378,N,01802.3274,E,7.3,304.7,060626,5.7,E,A*11
1780744691	$WIMWV,306.2,T,10.3,N,A*10
1780744693	$GPRMC,111805,A,4656.1390,N,01802.3248,E,7.3,306.2,060626,5.7,E,A*1E
1780744693	$WIMWV,309.5,T,10.3,N,A*18
1780744693	$GPRMC,111806,A,4656.1402,N,01802.3224,E,7.4,306.3,060626,5.7,E,A*1D
1780744694	$WIMWV,307.5,T,10.4,N,A*11
1780744694	$GPRMC,111807,A,4656.1417,N,01802.3201,E,7.4,305.5,060626,5.7,E,A*1A
1780744696	$WIMWV,310.1,T,9.9,N,A*26
1780744696	$GPRMC,111808,A,4656.1430,N,01802.3178,E,7.4,305.2,060626,5.7,E,A*1A
1780744696	$WIMWV,308.6,T,10.6,N,A*1F
1780744696	$GPRMC,111809,A,4656.1441,N,01802.3152,E,7.3,304.4,060626,5.7,E,A*15
1780744696	$WIMWV,307.7,T,10.3,N,A*14
1780744697	$GPRMC,111810,A,4656.1451,N,01802.3130,E,7.1,302.6,060626,5.7,E,A*1E
1780744697	$WIMWV,308.5,T,10.1,N,A*1B
1780744699	$GPRMC,111811,A,4656.1463,N,01802.3105,E,7.3,304.2,060626,5.7,E,A*18
1780744699	$WIMWV,310.2,T,10.4,N,A*10
1780744699	$GPRMC,111812,A,4656.1475,N,01802.3081,E,7.4,306.1,060626,5.7,E,A*17
1780744701	$WIMWV,309.5,T,10.1,N,A*1A
1780744701	$GPRMC,111813,A,4656.1487,N,01802.3056,E,7.3,304.5,060626,5.7,E,A*10
1780744701	$WIMWV,305.8,T,9.9,N,A*2B
1780744701	$GPRMC,111814,A,4656.1497,N,01802.3034,E,7.2,307.6,060626,5.7,E,A*13
1780744701	$WIMWV,308.5,T,10.4,N,A*1E
1780744702	$GPRMC,111815,A,4656.1510,N,01802.3008,E,7.3,306.1,060626,5.7,E,A*14
1780744702	$WIMWV,316.1,T,9.3,N,A*2A
1780744703	$GPRMC,111816,A,4656.1524,N,01802.2990,E,7.3,307.4,060626,5.7,E,A*1D
1780744703	$WIMWV,316.4,T,9.6,N,A*2A
1780744704	$GPRMC,111817,A,4656.1536,N,01802.2963,E,7.1,304.5,060626,5.7,E,A*13
1780744704	$WIMWV,305.2,T,8.2,N,A*2B
1780744704	$GPRMC,111818,A,4656.1547,N,01802.2940,E,7.1,311.6,060626,5.7,E,A*1C
1780744706	$WIMWV,292.2,T,9.0,N,A*27
1780744706	$GPRMC,111819,A,4656.1559,N,01802.2919,E,6.6,313.1,060626,5.7,E,A*1D
1780744706	$WIMWV,293.1,T,7.6,N,A*2D
1780744706	$GPRMC,111820,A,4656.1573,N,01802.2902,E,6.4,322.2,060626,5.7,E,A*16
1780744707	$WIMWV,267.7,T,11.0,N,A*11
1780744707	$GPRMC,111821,A,4656.1589,N,01802.2886,E,7.3,329.1,060626,5.7,E,A*11
1780744708	$WIMWV,290.6,T,10.4,N,A*1D
1780744708	$GPRMC,111822,A,4656.1607,N,01802.2873,E,7.5,327.0,060626,5.7,E,A*14
1780744709	$WIMWV,287.0,T,9.5,N,A*24
1780744709	$GPRMC,111823,A,4656.1627,N,01802.2859,E,7.5,329.5,060626,5.7,E,A*14
1780744710	$WIMWV,287.0,T,10.2,N,A*1B
1780744710	$GPRMC,111824,A,4656.1645,N,01802.2844,E,7.4,330.3,060626,5.7,E,A*14
1780744711	$WIMWV,264.1,T,10.9,N,A*1C
1780744712	$GPRMC,111825,A,4656.1663,N,01802.2829,E,7.1,333.1,060626,5.7,E,A*1E
1780744712	$WIMWV,260.1,T,10.4,N,A*15
1780744713	$GPRMC,111826,A,4656.1682,N,01802.2817,E,7.0,339.2,060626,5.7,E,A*17
1780744713	$WIMWV,251.2,T,11.9,N,A*18
1780744713	$WIMWV,251.2,T,11.9,N,A*18
1780744714	$GPRMC,111827,A,4656.1700,N,01802.2809,E,7.4,343.5,060626,5.7,E,A*1C
1780744714	$GPRMC,111827,A,4656.1700,N,01802.2809,E,7.4,343.5,060626,5.7,E,A*1C
1780744714	$WIMWV,245.7,T,12.4,N,A*16
1780744715	$GPRMC,111828,A,4656.1722,N,01802.2805,E,7.2,352.8,060626,5.7,E,A*14
1780744715	$WIMWV,242.6,T,13.2,N,A*17
1780744716	$GPRMC,111829,A,4656.1745,N,01802.2802,E,7.4,352.6,060626,5.7,E,A*1B
1780744716	$WIMWV,243.1,T,14.1,N,A*15
1780744717	$GPRMC,111830,A,4656.1763,N,01802.2801,E,7.3,356.4,060626,5.7,E,A*15
1780744717	$WIMWV,233.1,T,16.3,N,A*12
1780744717	$GPRMC,111831,A,4656.1785,N,01802.2803,E,7.4,358.9,060626,5.7,E,A*1A
1780744718	$WIMWV,233.8,T,16.6,N,A*1E
1780744718	$GPRMC,111832,A,4656.1804,N,01802.2803,E,7.3,2.0,060626,5.7,E,A*1D
1780744719	$WIMWV,250.3,T,15.3,N,A*16
1780744719	$GPRMC,111833,A,4656.1825,N,01802.2805,E,7.8,2.3,060626,5.7,E,A*11
1780744720	$WIMWV,244.3,T,14.9,N,A*18
1780744721	$GPRMC,111834,A,4656.1846,N,01802.2802,E,7.7,7.7,060626,5.7,E,A*1A
1780744721	$WIMWV,226.1,T,14.9,N,A*1E
1780744722	$GPRMC,111835,A,4656.1869,N,01802.2807,E,7.9,10.7,060626,5.7,E,A*2B
1780744722	$WIMWV,236.7,T,13.6,N,A*11
1780744722	$GPRMC,111836,A,4656.1892,N,01802.2814,E,8.3,10.8,060626,5.7,E,A*24
1780744723	$WIMWV,233.2,T,14.0,N,A*10
1780744724	$GPRMC,111837,A,4656.1915,N,01802.2820,E,8.4,11.7,060626,5.7,E,A*25
1780744724	$WIMWV,232.6,T,14.5,N,A*10
1780744725	$GPRMC,111838,A,4656.1936,N,01802.2825,E,8.2,12.0,060626,5.7,E,A*2C
1780744725	$WIMWV,240.0,T,12.8,N,A*18
1780744726	$GPRMC,111839,A,4656.1959,N,01802.2830,E,8.2,12.3,060626,5.7,E,A*23
1780744726	$WIMWV,231.3,T,12.8,N,A*1D
1780744727	$GPRMC,111840,A,4656.1980,N,01802.2835,E,8.0,12.2,060626,5.7,E,A*2F
1780744727	$WIMWV,232.3,T,11.9,N,A*1C
1780744728	$GPRMC,111841,A,4656.2002,N,01802.2842,E,8.0,10.9,060626,5.7,E,A*27
1780744728	$WIMWV,235.7,T,12.2,N,A*17
1780744729	$GPRMC,111842,A,4656.2024,N,01802.2847,E,8.0,11.0,060626,5.7,E,A*2D
1780744729	$WIMWV,239.2,T,11.7,N,A*18
1780744730	$GPRMC,111843,A,4656.2046,N,01802.2853,E,8.2,11.5,060626,5.7,E,A*2A
1780744730	$WIMWV,229.6,T,13.2,N,A*1A
1780744731	$GPRMC,111844,A,4656.2068,N,01802.2857,E,8.2,13.7,060626,5.7,E,A*25
1780744731	$WIMWV,234.5,T,12.9,N,A*1F
1780744732	$GPRMC,111845,A,4656.2090,N,01802.2861,E,8.3,13.6,060626,5.7,E,A*26
1780744732	$WIMWV,235.4,T,13.2,N,A*15
1780744733	$GPRMC,111846,A,4656.2112,N,01802.2865,E,8.3,15.4,060626,5.7,E,A*2E
1780744733	$WIMWV,230.6,T,13.2,N,A*12
1780744734	$GPRMC,111847,A,4656.2133,N,01802.2873,E,8.1,13.6,060626,5.7,E,A*2D
1780744734	$WIMWV,232.6,T,12.5,N,A*16
1780744735	$GPRMC,111848,A,4656.2155,N,01802.2882,E,8.1,14.1,060626,5.7,E,A*2C
1780744735	$WIMWV,229.4,T,11.9,N,A*11
1780744736	$GPRMC,111849,A,4656.2176,N,01802.2890,E,8.1,13.6,060626,5.7,E,A*2F
1780744736	$WIMWV,225.2,T,12.0,N,A*11
1780744737	$GPRMC,111850,A,4656.2198,N,01802.2898,E,8.1,11.9,060626,5.7,E,A*22
1780744737	$WIMWV,231.1,T,11.8,N,A*1C
1780744738	$GPRMC,111851,A,4656.2220,N,01802.2906,E,8.0,11.5,060626,5.7,E,A*28
1780744738	$WIMWV,231.6,T,12.1,N,A*11
1780744739	$GPRMC,111852,A,4656.2242,N,01802.2912,E,7.9,11.3,060626,5.7,E,A*2A
1780744739	$WIMWV,235.3,T,12.3,N,A*12
1780744740	$GPRMC,111853,A,4656.2264,N,01802.2919,E,7.9,12.4,060626,5.7,E,A*20
1780744740	$GPRMC,111853,A,4656.2264,N,01802.2919,E,7.9,12.4,060626,5.7,E,A*20
1780744740	$WIMWV,242.5,T,12.5,N,A*12
1780744740	$WIMWV,242.5,T,12.5,N,A*12
1780744741	$GPRMC,111854,A,4656.2285,N,01802.2925,E,7.9,9.0,060626,5.7,E,A*19
1780744741	$GPRMC,111854,A,4656.2285,N,01802.2925,E,7.9,9.0,060626,5.7,E,A*19
1780744741	$WIMWV,240.8,T,12.4,N,A*1C
1780744742	$GPRMC,111855,A,4656.2307,N,01802.2931,E,7.9,9.8,060626,5.7,E,A*1E
1780744742	$WIMWV,239.1,T,11.5,N,A*19
1780744743	$GPRMC,111856,A,4656.2330,N,01802.2937,E,8.0,8.8,060626,5.7,E,A*18
1780744743	$WIMWV,236.6,T,11.6,N,A*12
1780744744	$GPRMC,111857,A,4656.2353,N,01802.2941,E,8.0,7.8,060626,5.7,E,A*12
1780744744	$WIMWV,239.3,T,11.7,N,A*19
1780744745	$GPRMC,111858,A,4656.2374,N,01802.2946,E,7.9,8.3,060626,5.7,E,A*1D
1780744745	$WIMWV,238.5,T,13.3,N,A*18
1780744746	$GPRMC,111859,A,4656.2396,N,01802.2952,E,7.8,7.8,060626,5.7,E,A*10
1780744747	$WIMWV,243.3,T,11.7,N,A*14
1780744747	$GPRMC,111900,A,4656.2418,N,01802.2956,E,7.8,5.2,060626,5.7,E,A*10
1780744747	$WIMWV,243.8,T,11.1,N,A*19
1780744748	$GPRMC,111901,A,4656.2439,N,01802.2958,E,7.7,4.4,060626,5.7,E,A*14
1780744748	$WIMWV,238.3,T,10.7,N,A*19
1780744749	$GPRMC,111902,A,4656.2461,N,01802.2959,E,7.7,2.5,060626,5.7,E,A*1C
1780744749	$WIMWV,241.5,T,10.2,N,A*14
1780744750	$GPRMC,111903,A,4656.2482,N,01802.2961,E,7.7,2.4,060626,5.7,E,A*1A
1780744750	$WIMWV,239.9,T,10.7,N,A*12
1780744751	$GPRMC,111904,A,4656.2504,N,01802.2963,E,7.8,3.1,060626,5.7,E,A*1B
1780744751	$WIMWV,241.2,T,10.5,N,A*14
1780744751	$WIMWV,241.2,T,10.5,N,A*14
1780744752	$GPRMC,111905,A,4656.2523,N,01802.2967,E,7.7,3.3,060626,5.7,E,A*16
1780744752	$GPRMC,111905,A,4656.2523,N,01802.2967,E,7.7,3.3,060626,5.7,E,A*16
1780744752	$WIMWV,243.2,T,11.3,N,A*11
1780744752	$WIMWV,243.2,T,11.3,N,A*11
1780744753	$GPRMC,111906,A,4656.2544,N,01802.2967,E,7.7,2.9,060626,5.7,E,A*1F
1780744753	$GPRMC,111906,A,4656.2544,N,01802.2967,E,7.7,2.9,060626,5.7,E,A*1F
1780744753	$WIMWV,245.0,T,11.7,N,A*11
1780744753	$WIMWV,245.0,T,11.7,N,A*11
1780744754	$GPRMC,111907,A,4656.2565,N,01802.2967,E,7.8,1.0,060626,5.7,E,A*18
1780744754	$GPRMC,111907,A,4656.2565,N,01802.2967,E,7.8,1.0,060626,5.7,E,A*18
1780744754	$WIMWV,239.4,T,11.7,N,A*1E
1780744754	$WIMWV,239.4,T,11.7,N,A*1E
1780744755	$GPRMC,111908,A,4656.2586,N,01802.2966,E,7.8,359.3,060626,5.7,E,A*16
1780744755	$GPRMC,111908,A,4656.2586,N,01802.2966,E,7.8,359.3,060626,5.7,E,A*16
1780744755	$WIMWV,245.5,T,12.0,N,A*10
1780744755	$WIMWV,245.5,T,12.0,N,A*10
1780744756	$GPRMC,111909,A,4656.2608,N,01802.2964,E,7.6,355.6,060626,5.7,E,A*17
1780744756	$GPRMC,111909,A,4656.2608,N,01802.2964,E,7.6,355.6,060626,5.7,E,A*17
1780744756	$WIMWV,250.7,T,13.3,N,A*14
1780744756	$WIMWV,250.7,T,13.3,N,A*14
1780744757	$GPRMC,111910,A,4656.2628,N,01802.2961,E,7.3,353.5,060626,5.7,E,A*18
1780744757	$GPRMC,111910,A,4656.2628,N,01802.2961,E,7.3,353.5,060626,5.7,E,A*18
1780744757	$WIMWV,252.6,T,11.4,N,A*12
1780744757	$WIMWV,252.6,T,11.4,N,A*12
1780744758	$GPRMC,111911,A,4656.2649,N,01802.2957,E,7.2,351.3,060626,5.7,E,A*1E
1780744758	$GPRMC,111911,A,4656.2649,N,01802.2957,E,7.2,351.3,060626,5.7,E,A*1E
1780744758	$WIMWV,255.0,T,9.9,N,A*27
1780744758	$WIMWV,255.0,T,9.9,N,A*27
1780744759	$GPRMC,111912,A,4656.2667,N,01802.2953,E,7.0,349.3,060626,5.7,E,A*1E
1780744759	$GPRMC,111912,A,4656.2667,N,01802.2953,E,7.0,349.3,060626,5.7,E,A*1E
1780744759	$WIMWV,249.2,T,9.2,N,A*23
1780744759	$WIMWV,249.2,T,9.2,N,A*23
1780744760	$GPRMC,111913,A,4656.2686,N,01802.2946,E,6.9,348.7,060626,5.7,E,A*19
1780744760	$GPRMC,111913,A,4656.2686,N,01802.2946,E,6.9,348.7,060626,5.7,E,A*19
1780744760	$WIMWV,253.5,T,10.9,N,A*1C
1780744760	$WIMWV,253.5,T,10.9,N,A*1C
1780744761	$GPRMC,111914,A,4656.2704,N,01802.2940,E,6.6,343.9,060626,5.7,E,A*19
1780744761	$GPRMC,111914,A,4656.2704,N,01802.2940,E,6.6,343.9,060626,5.7,E,A*19
1780744761	$WIMWV,260.5,T,11.8,N,A*1C
1780744761	$WIMWV,260.5,T,11.8,N,A*1C
1780744762	$GPRMC,111915,A,4656.2721,N,01802.2932,E,6.6,341.9,060626,5.7,E,A*18
1780744762	$GPRMC,111915,A,4656.2721,N,01802.2932,E,6.6,341.9,060626,5.7,E,A*18
1780744762	$WIMWV,262.0,T,10.9,N,A*1B
1780744762	$WIMWV,262.0,T,10.9,N,A*1B
1780744763	$GPRMC,111916,A,4656.2738,N,01802.2922,E,6.5,339.2,060626,5.7,E,A*15
1780744763	$GPRMC,111916,A,4656.2738,N,01802.2922,E,6.5,339.2,060626,5.7,E,A*15
1780744763	$WIMWV,262.6,T,10.9,N,A*1D
1780744763	$WIMWV,262.6,T,10.9,N,A*1D
1780744764	$GPRMC,111917,A,4656.2755,N,01802.2913,E,6.4,338.7,060626,5.7,E,A*18
1780744764	$GPRMC,111917,A,4656.2755,N,01802.2913,E,6.4,338.7,060626,5.7,E,A*18
1780744764	$WIMWV,259.7,T,10.8,N,A*15
1780744764	$WIMWV,259.7,T,10.8,N,A*15
1780744765	$GPRMC,111918,A,4656.2772,N,01802.2904,E,6.2,340.4,060626,5.7,E,A*1E
1780744765	$GPRMC,111918,A,4656.2772,N,01802.2904,E,6.2,340.4,060626,5.7,E,A*1E
1780744765	$WIMWV,260.1,T,11.3,N,A*13
1780744765	$WIMWV,260.1,T,11.3,N,A*13
1780744766	$GPRMC,111919,A,4656.2789,N,01802.2897,E,6.0,338.8,060626,5.7,E,A*11
1780744766	$GPRMC,111919,A,4656.2789,N,01802.2897,E,6.0,338.8,060626,5.7,E,A*11
1780744766	$WIMWV,263.9,T,10.2,N,A*18
1780744766	$WIMWV,263.9,T,10.2,N,A*18
1780744767	$GPRMC,111920,A,4656.2806,N,01802.2886,E,5.9,338.9,060626,5.7,E,A*18
1780744767	$GPRMC,111920,A,4656.2806,N,01802.2886,E,5.9,338.9,060626,5.7,E,A*18
1780744767	$WIMWV,266.2,T,11.4,N,A*11
1780744767	$WIMWV,266.2,T,11.4,N,A*11
1780744768	$GPRMC,111921,A,4656.2821,N,01802.2880,E,5.7,340.0,060626,5.7,E,A*12
1780744768	$GPRMC,111921,A,4656.2821,N,01802.2880,E,5.7,340.0,060626,5.7,E,A*12
1780744768	$WIMWV,267.1,T,11.0,N,A*17
1780744768	$WIMWV,267.1,T,11.0,N,A*17
1780744769	$GPRMC,111922,A,4656.2837,N,01802.2873,E,5.8,341.5,060626,5.7,E,A*11
1780744769	$GPRMC,111922,A,4656.2837,N,01802.2873,E,5.8,341.5,060626,5.7,E,A*11
1780744769	$WIMWV,258.5,T,11.8,N,A*17
1780744769	$WIMWV,258.5,T,11.8,N,A*17
1780744770	$GPRMC,111923,A,4656.2851,N,01802.2867,E,5.6,345.6,060626,5.7,E,A*1C
1780744770	$GPRMC,111923,A,4656.2851,N,01802.2867,E,5.6,345.6,060626,5.7,E,A*1C
1780744770	$WIMWV,258.3,T,11.8,N,A*11
1780744770	$WIMWV,258.3,T,11.8,N,A*11
1780744771	$GPRMC,111924,A,4656.2866,N,01802.2861,E,5.8,346.7,060626,5.7,E,A*15
1780744771	$GPRMC,111924,A,4656.2866,N,01802.2861,E,5.8,346.7,060626,5.7,E,A*15
1780744771	$WIMWV,254.7,T,10.3,N,A*13
1780744771	$WIMWV,254.7,T,10.3,N,A*13
1780744772	$GPRMC,111925,A,4656.2880,N,01802.2857,E,5.7,349.0,060626,5.7,E,A*1E
1780744772	$GPRMC,111925,A,4656.2880,N,01802.2857,E,5.7,349.0,060626,5.7,E,A*1E
1780744772	$WIMWV,264.0,T,9.9,N,A*25
1780744772	$WIMWV,264.0,T,9.9,N,A*25
1780744773	$GPRMC,111926,A,4656.2895,N,01802.2854,E,5.6,349.3,060626,5.7,E,A*18
1780744773	$WIMWV,257.0,T,10.8,N,A*1C
1780744773	$GPRMC,111926,A,4656.2895,N,01802.2854,E,5.6,349.3,060626,5.7,E,A*18
1780744773	$WIMWV,257.0,T,10.8,N,A*1C
1780744774	$GPRMC,111927,A,4656.2911,N,01802.2849,E,5.5,347.7,060626,5.7,E,A*11
1780744774	$WIMWV,260.6,T,10.5,N,A*13
1780744774	$GPRMC,111927,A,4656.2911,N,01802.2849,E,5.5,347.7,060626,5.7,E,A*11
1780744774	$WIMWV,260.6,T,10.5,N,A*13
1780744775	$GPRMC,111928,A,4656.2926,N,01802.2844,E,5.6,346.5,060626,5.7,E,A*17
1780744775	$WIMWV,260.5,T,11.3,N,A*17
1780744775	$GPRMC,111928,A,4656.2926,N,01802.2844,E,5.6,346.5,060626,5.7,E,A*17
1780744775	$WIMWV,260.5,T,11.3,N,A*17
1780744776	$GPRMC,111929,A,4656.2941,N,01802.2840,E,5.6,349.6,060626,5.7,E,A*1F
1780744776	$GPRMC,111929,A,4656.2941,N,01802.2840,E,5.6,349.6,060626,5.7,E,A*1F
1780744776	$WIMWV,253.1,T,11.3,N,A*13
1780744776	$WIMWV,253.1,T,11.3,N,A*13
1780744777	$GPRMC,111930,A,4656.2957,N,01802.2835,E,5.6,351.0,060626,5.7,E,A*1D
1780744777	$GPRMC,111930,A,4656.2957,N,01802.2835,E,5.6,351.0,060626,5.7,E,A*1D
1780744777	$WIMWV,258.4,T,10.9,N,A*16
1780744777	$WIMWV,258.4,T,10.9,N,A*16
1780744778	$GPRMC,111931,A,4656.2971,N,01802.2832,E,5.8,349.4,060626,5.7,E,A*1C
1780744778	$GPRMC,111931,A,4656.2971,N,01802.2832,E,5.8,349.4,060626,5.7,E,A*1C
1780744778	$WIMWV,258.9,T,9.6,N,A*2C
1780744778	$WIMWV,258.9,T,9.6,N,A*2C
1780744779	$GPRMC,111932,A,4656.2988,N,01802.2829,E,5.9,349.4,060626,5.7,E,A*12
1780744779	$GPRMC,111932,A,4656.2988,N,01802.2829,E,5.9,349.4,060626,5.7,E,A*12
1780744779	$WIMWV,256.8,T,9.5,N,A*20
1780744779	$WIMWV,256.8,T,9.5,N,A*20
1780744780	$GPRMC,111933,A,4656.3004,N,01802.2825,E,5.9,349.3,060626,5.7,E,A*14
1780744780	$GPRMC,111933,A,4656.3004,N,01802.2825,E,5.9,349.3,060626,5.7,E,A*14
1780744780	$WIMWV,266.0,T,11.2,N,A*15
1780744780	$WIMWV,266.0,T,11.2,N,A*15
1780744781	$GPRMC,111934,A,4656.3021,N,01802.2818,E,6.1,339.8,060626,5.7,E,A*1D
1780744781	$GPRMC,111934,A,4656.3021,N,01802.2818,E,6.1,339.8,060626,5.7,E,A*1D
1780744781	$WIMWV,270.8,T,11.3,N,A*1B
1780744781	$WIMWV,270.8,T,11.3,N,A*1B
1780744782	$GPRMC,111935,A,4656.3038,N,01802.2811,E,5.9,340.0,060626,5.7,E,A*10
1780744782	$GPRMC,111935,A,4656.3038,N,01802.2811,E,5.9,340.0,060626,5.7,E,A*10
1780744782	$WIMWV,271.1,T,10.8,N,A*19
1780744782	$WIMWV,271.1,T,10.8,N,A*19
1780744783	$GPRMC,111936,A,4656.3054,N,01802.2801,E,5.9,333.4,060626,5.7,E,A*18
1780744783	$GPRMC,111936,A,4656.3054,N,01802.2801,E,5.9,333.4,060626,5.7,E,A*18
1780744783	$WIMWV,272.7,T,10.7,N,A*13
1780744783	$WIMWV,272.7,T,10.7,N,A*13
1780744784	$GPRMC,111937,A,4656.3069,N,01802.2788,E,5.9,330.8,060626,5.7,E,A*16
1780744784	$GPRMC,111937,A,4656.3069,N,01802.2788,E,5.9,330.8,060626,5.7,E,A*16
1780744784	$WIMWV,275.3,T,11.5,N,A*13
1780744784	$WIMWV,275.3,T,11.5,N,A*13
1780744785	$GPRMC,111938,A,4656.3084,N,01802.2774,E,5.8,324.8,060626,5.7,E,A*1D
1780744785	$GPRMC,111938,A,4656.3084,N,01802.2774,E,5.8,324.8,060626,5.7,E,A*1D
1780744785	$WIMWV,277.8,T,11.0,N,A*1F
1780744785	$WIMWV,277.8,T,11.0,N,A*1F
1780744786	$GPRMC,111939,A,4656.3097,N,01802.2757,E,5.8,323.4,060626,5.7,E,A*14
1780744786	$GPRMC,111939,A,4656.3097,N,01802.2757,E,5.8,323.4,060626,5.7,E,A*14
1780744786	$WIMWV,281.5,T,11.4,N,A*1F
1780744786	$WIMWV,281.5,T,11.4,N,A*1F
1780744787	$GPRMC,111940,A,4656.3110,N,01802.2742,E,5.7,316.7,060626,5.7,E,A*1A
1780744787	$GPRMC,111940,A,4656.3110,N,01802.2742,E,5.7,316.7,060626,5.7,E,A*1A
1780744787	$WIMWV,279.1,T,11.0,N,A*18
1780744787	$WIMWV,279.1,T,11.0,N,A*18
1780744788	$GPRMC,111941,A,4656.3122,N,01802.2727,E,5.6,320.6,060626,5.7,E,A*1C
1780744788	$GPRMC,111941,A,4656.3122,N,01802.2727,E,5.6,320.6,060626,5.7,E,A*1C
1780744788	$WIMWV,285.5,T,11.4,N,A*1B
1780744788	$WIMWV,285.5,T,11.4,N,A*1B
1780744789	$GPRMC,111942,A,4656.3134,N,01802.2713,E,5.5,317.3,060626,5.7,E,A*1D
1780744789	$GPRMC,111942,A,4656.3134,N,01802.2713,E,5.5,317.3,060626,5.7,E,A*1D
1780744789	$WIMWV,283.3,T,10.6,N,A*18
1780744789	$WIMWV,283.3,T,10.6,N,A*18
1780744790	$GPRMC,111943,A,4656.3142,N,01802.2702,E,5.3,317.8,060626,5.7,E,A*10
1780744790	$GPRMC,111943,A,4656.3142,N,01802.2702,E,5.3,317.8,060626,5.7,E,A*10
1780744790	$WIMWV,287.5,T,11.5,N,A*18
1780744790	$WIMWV,287.5,T,11.5,N,A*18
1780744791	$GPRMC,111944,A,4656.3157,N,01802.2681,E,5.2,315.4,060626,5.7,E,A*16
1780744791	$GPRMC,111944,A,4656.3157,N,01802.2681,E,5.2,315.4,060626,5.7,E,A*16
1780744791	$WIMWV,293.6,T,10.5,N,A*1F
1780744791	$WIMWV,293.6,T,10.5,N,A*1F
1780744792	$GPRMC,111945,A,4656.3166,N,01802.2666,E,5.2,312.5,060626,5.7,E,A*1A
1780744792	$GPRMC,111945,A,4656.3166,N,01802.2666,E,5.2,312.5,060626,5.7,E,A*1A
1780744792	$WIMWV,297.0,T,11.1,N,A*18
1780744792	$WIMWV,297.0,T,11.1,N,A*18
1780744793	$GPRMC,111946,A,4656.3175,N,01802.2649,E,5.2,308.2,060626,5.7,E,A*1A
1780744793	$GPRMC,111946,A,4656.3175,N,01802.2649,E,5.2,308.2,060626,5.7,E,A*1A
1780744793	$WIMWV,296.3,T,10.0,N,A*1A
1780744793	$WIMWV,296.3,T,10.0,N,A*1A
1780744794	$GPRMC,111947,A,4656.3184,N,01802.2634,E,5.0,314.5,060626,5.7,E,A*17
1780744794	$GPRMC,111947,A,4656.3184,N,01802.2634,E,5.0,314.5,060626,5.7,E,A*17
1780744794	$WIMWV,282.0,T,12.0,N,A*1E
1780744794	$WIMWV,282.0,T,12.0,N,A*1E
1780744795	$GPRMC,111948,A,4656.3194,N,01802.2619,E,4.8,310.7,060626,5.7,E,A*19
1780744795	$GPRMC,111948,A,4656.3194,N,01802.2619,E,4.8,310.7,060626,5.7,E,A*19
1780744795	$WIMWV,299.6,T,10.5,N,A*15
1780744795	$WIMWV,299.6,T,10.5,N,A*15
1780744796	$GPRMC,111949,A,4656.3203,N,01802.2603,E,5.1,313.7,060626,5.7,E,A*15
1780744796	$GPRMC,111949,A,4656.3203,N,01802.2603,E,5.1,313.7,060626,5.7,E,A*15
1780744796	$WIMWV,279.6,T,12.0,N,A*1C
1780744796	$WIMWV,279.6,T,12.0,N,A*1C
1780744797	$GPRMC,111950,A,4656.3213,N,01802.2588,E,4.8,313.3,060626,5.7,E,A*10
1780744797	$GPRMC,111950,A,4656.3213,N,01802.2588,E,4.8,313.3,060626,5.7,E,A*10
1780744797	$WIMWV,286.8,T,12.7,N,A*15
1780744797	$WIMWV,286.8,T,12.7,N,A*15
1780744798	$GPRMC,111951,A,4656.3222,N,01802.2574,E,4.8,311.9,060626,5.7,E,A*18
1780744798	$GPRMC,111951,A,4656.3222,N,01802.2574,E,4.8,311.9,060626,5.7,E,A*18
1780744798	$WIMWV,294.5,T,10.3,N,A*1D
1780744798	$WIMWV,294.5,T,10.3,N,A*1D
1780744799	$GPRMC,111952,A,4656.3231,N,01802.2560,E,5.0,314.5,060626,5.7,E,A*1C
1780744799	$GPRMC,111952,A,4656.3231,N,01802.2560,E,5.0,314.5,060626,5.7,E,A*1C
1780744799	$WIMWV,288.9,T,11.6,N,A*18
1780744799	$WIMWV,288.9,T,11.6,N,A*18
1780744800	$GPRMC,111953,A,4656.3240,N,01802.2546,E,4.8,312.0,060626,5.7,E,A*15
1780744800	$GPRMC,111953,A,4656.3240,N,01802.2546,E,4.8,312.0,060626,5.7,E,A*15
1780744800	$WIMWV,294.1,T,10.0,N,A*1A
1780744800	$WIMWV,294.1,T,10.0,N,A*1A
1780744801	$GPRMC,111954,A,4656.3250,N,01802.2532,E,5.0,312.8,060626,5.7,E,A*11
1780744801	$GPRMC,111954,A,4656.3250,N,01802.2532,E,5.0,312.8,060626,5.7,E,A*11
1780744801	$WIMWV,288.5,T,11.6,N,A*14
1780744801	$WIMWV,288.5,T,11.6,N,A*14
1780744802	$GPRMC,111955,A,4656.3259,N,01802.2515,E,4.9,309.4,060626,5.7,E,A*12
1780744802	$GPRMC,111955,A,4656.3259,N,01802.2515,E,4.9,309.4,060626,5.7,E,A*12
1780744802	$WIMWV,294.8,T,10.6,N,A*15
1780744802	$WIMWV,294.8,T,10.6,N,A*15
1780744803	$GPRMC,111956,A,4656.3269,N,01802.2501,E,5.0,311.4,060626,5.7,E,A*16
1780744803	$GPRMC,111956,A,4656.3269,N,01802.2501,E,5.0,311.4,060626,5.7,E,A*16
1780744803	$WIMWV,288.0,T,12.0,N,A*14
1780744803	$WIMWV,288.0,T,12.0,N,A*14
1780744804	$GPRMC,111957,A,4656.3277,N,01802.2486,E,4.9,310.2,060626,5.7,E,A*19
1780744804	$GPRMC,111957,A,4656.3277,N,01802.2486,E,4.9,310.2,060626,5.7,E,A*19
1780744804	$WIMWV,295.2,T,11.3,N,A*1A
1780744804	$WIMWV,295.2,T,11.3,N,A*1A
1780744805	$GPRMC,111958,A,4656.3288,N,01802.2469,E,5.0,311.2,060626,5.7,E,A*1E
1780744805	$GPRMC,111958,A,4656.3288,N,01802.2469,E,5.0,311.2,060626,5.7,E,A*1E
1780744805	$WIMWV,294.4,T,10.9,N,A*16
1780744805	$WIMWV,294.4,T,10.9,N,A*16
1780744806	$GPRMC,111959,A,4656.3297,N,01802.2453,E,5.1,309.6,060626,5.7,E,A*14
1780744806	$WIMWV,290.9,T,11.0,N,A*17
1780744806	$GPRMC,111959,A,4656.3297,N,01802.2453,E,5.1,309.6,060626,5.7,E,A*14
1780744806	$WIMWV,290.9,T,11.0,N,A*17
1780744807	$GPRMC,112000,A,4656.3308,N,01802.2436,E,5.0,310.9,060626,5.7,E,A*10
1780744807	$WIMWV,285.5,T,11.2,N,A*1D
1780744807	$GPRMC,112000,A,4656.3308,N,01802.2436,E,5.0,310.9,060626,5.7,E,A*10
1780744807	$WIMWV,285.5,T,11.2,N,A*1D
1780744808	$GPRMC,112001,A,4656.3317,N,01802.2421,E,4.9,310.4,060626,5.7,E,A*1C
1780744808	$WIMWV,296.2,T,9.7,N,A*24
1780744808	$GPRMC,112001,A,4656.3317,N,01802.2421,E,4.9,310.4,060626,5.7,E,A*1C
1780744808	$WIMWV,296.2,T,9.7,N,A*24
1780744809	$GPRMC,112002,A,4656.3327,N,01802.2406,E,5.1,310.9,060626,5.7,E,A*1D
1780744809	$WIMWV,291.7,T,10.2,N,A*1B
1780744809	$GPRMC,112002,A,4656.3327,N,01802.2406,E,5.1,310.9,060626,5.7,E,A*1D
1780744809	$WIMWV,291.7,T,10.2,N,A*1B
1780744810	$GPRMC,112003,A,4656.3336,N,01802.2393,E,5.0,319.2,060626,5.7,E,A*14
1780744810	$WIMWV,283.1,T,12.2,N,A*1C
1780744810	$GPRMC,112003,A,4656.3336,N,01802.2393,E,5.0,319.2,060626,5.7,E,A*14
1780744810	$WIMWV,283.1,T,12.2,N,A*1C
1780744811	$GPRMC,112004,A,4656.3344,N,01802.2380,E,4.8,311.4,060626,5.7,E,A*13
1780744811	$GPRMC,112004,A,4656.3344,N,01802.2380,E,4.8,311.4,060626,5.7,E,A*13
1780744811	$WIMWV,296.1,T,9.8,N,A*28
1780744811	$WIMWV,296.1,T,9.8,N,A*28
1780744812	$GPRMC,112005,A,4656.3355,N,01802.2365,E,5.0,317.5,060626,5.7,E,A*17
1780744812	$GPRMC,112005,A,4656.3355,N,01802.2365,E,5.0,317.5,060626,5.7,E,A*17
1780744812	$WIMWV,284.4,T,12.9,N,A*15
1780744812	$WIMWV,284.4,T,12.9,N,A*15
1780744813	$GPRMC,112006,A,4656.3362,N,01802.2354,E,4.9,309.2,060626,5.7,E,A*12
1780744813	$GPRMC,112006,A,4656.3362,N,01802.2354,E,4.9,309.2,060626,5.7,E,A*12
1780744813	$WIMWV,295.7,T,11.0,N,A*1C
1780744813	$WIMWV,295.7,T,11.0,N,A*1C
1780744814	$GPRMC,112007,A,4656.3374,N,01802.2338,E,5.0,312.2,060626,5.7,E,A*1C
1780744814	$GPRMC,112007,A,4656.3374,N,01802.2338,E,5.0,312.2,060626,5.7,E,A*1C
1780744814	$WIMWV,286.0,T,12.4,N,A*1E
1780744814	$WIMWV,286.0,T,12.4,N,A*1E
1780744815	$GPRMC,112008,A,4656.3382,N,01802.2325,E,4.7,309.6,060626,5.7,E,A*1E
1780744815	$GPRMC,112008,A,4656.3382,N,01802.2325,E,4.7,309.6,060626,5.7,E,A*1E
1780744815	$WIMWV,301.8,T,10.9,N,A*17
1780744815	$WIMWV,301.8,T,10.9,N,A*17
1780744816	$GPRMC,112009,A,4656.3391,N,01802.2311,E,4.8,309.6,060626,5.7,E,A*15
1780744816	$GPRMC,112009,A,4656.3391,N,01802.2311,E,4.8,309.6,060626,5.7,E,A*15
1780744816	$WIMWV,285.4,T,11.7,N,A*19
1780744816	$WIMWV,285.4,T,11.7,N,A*19
1780744817	$GPRMC,112010,A,4656.3400,N,01802.2295,E,4.6,311.4,060626,5.7,E,A*1A
1780744817	$GPRMC,112010,A,4656.3400,N,01802.2295,E,4.6,311.4,060626,5.7,E,A*1A
1780744817	$WIMWV,293.5,T,11.8,N,A*10
1780744817	$WIMWV,293.5,T,11.8,N,A*10
1780744818	$GPRMC,112011,A,4656.3409,N,01802.2282,E,4.7,309.5,060626,5.7,E,A*1D
1780744818	$GPRMC,112011,A,4656.3409,N,01802.2282,E,4.7,309.5,060626,5.7,E,A*1D
1780744818	$WIMWV,289.7,T,10.4,N,A*14
1780744818	$WIMWV,289.7,T,10.4,N,A*14
1780744819	$GPRMC,112012,A,4656.3416,N,01802.2268,E,4.7,313.9,060626,5.7,E,A*13
1780744819	$GPRMC,112012,A,4656.3416,N,01802.2268,E,4.7,313.9,060626,5.7,E,A*13
1780744819	$WIMWV,286.5,T,11.3,N,A*1F
1780744819	$WIMWV,286.5,T,11.3,N,A*1F
1780744820	$GPRMC,112013,A,4656.3426,N,01802.2253,E,4.7,314.7,060626,5.7,E,A*10
1780744820	$GPRMC,112013,A,4656.3426,N,01802.2253,E,4.7,314.7,060626,5.7,E,A*10
1780744820	$WIMWV,293.4,T,9.4,N,A*24
1780744820	$WIMWV,293.4,T,9.4,N,A*24
1780744821	$GPRMC,112014,A,4656.3437,N,01802.2241,E,4.8,320.6,060626,5.7,E,A*1D
1780744821	$GPRMC,112014,A,4656.3437,N,01802.2241,E,4.8,320.6,060626,5.7,E,A*1D
1780744821	$WIMWV,281.4,T,11.5,N,A*1F
1780744821	$WIMWV,281.4,T,11.5,N,A*1F
1780744822	$GPRMC,112015,A,4656.3446,N,01802.2230,E,4.8,318.3,060626,5.7,E,A*12
1780744822	$GPRMC,112015,A,4656.3446,N,01802.2230,E,4.8,318.3,060626,5.7,E,A*12
1780744822	$WIMWV,288.7,T,10.8,N,A*19
1780744822	$WIMWV,288.7,T,10.8,N,A*19
1780744823	$GPRMC,112016,A,4656.3457,N,01802.2214,E,4.9,317.8,060626,5.7,E,A*12
1780744823	$GPRMC,112016,A,4656.3457,N,01802.2214,E,4.9,317.8,060626,5.7,E,A*12
1780744823	$WIMWV,282.5,T,10.0,N,A*19
1780744823	$WIMWV,282.5,T,10.0,N,A*19
1780744824	$GPRMC,112017,A,4656.3469,N,01802.2203,E,4.9,324.4,060626,5.7,E,A*14
1780744824	$GPRMC,112017,A,4656.3469,N,01802.2203,E,4.9,324.4,060626,5.7,E,A*14
1780744824	$WIMWV,273.2,T,10.6,N,A*16
1780744824	$WIMWV,273.2,T,10.6,N,A*16
1780744825	$GPRMC,112018,A,4656.3481,N,01802.2195,E,5.0,324.4,060626,5.7,E,A*19
1780744825	$GPRMC,112018,A,4656.3481,N,01802.2195,E,5.0,324.4,060626,5.7,E,A*19
1780744825	$WIMWV,273.5,T,9.9,N,A*26
1780744825	$WIMWV,273.5,T,9.9,N,A*26
1780744826	$GPRMC,112019,A,4656.3492,N,01802.2183,E,5.2,329.1,060626,5.7,E,A*17
1780744826	$GPRMC,112019,A,4656.3492,N,01802.2183,E,5.2,329.1,060626,5.7,E,A*17
1780744826	$WIMWV,272.7,T,10.2,N,A*16
1780744826	$WIMWV,272.7,T,10.2,N,A*16
1780744827	$GPRMC,112020,A,4656.3504,N,01802.2171,E,5.0,327.8,060626,5.7,E,A*1B
1780744827	$GPRMC,112020,A,4656.3504,N,01802.2171,E,5.0,327.8,060626,5.7,E,A*1B
1780744827	$WIMWV,277.4,T,9.9,N,A*23
1780744827	$WIMWV,277.4,T,9.9,N,A*23
1780744828	$GPRMC,112021,A,4656.3517,N,01802.2160,E,5.3,331.8,060626,5.7,E,A*1C
1780744828	$GPRMC,112021,A,4656.3517,N,01802.2160,E,5.3,331.8,060626,5.7,E,A*1C
1780744828	$WIMWV,266.4,T,10.2,N,A*10
1780744828	$WIMWV,266.4,T,10.2,N,A*10
1780744829	$GPRMC,112022,A,4656.3528,N,01802.2152,E,5.4,331.3,060626,5.7,E,A*1E
1780744829	$GPRMC,112022,A,4656.3528,N,01802.2152,E,5.4,331.3,060626,5.7,E,A*1E
1780744829	$WIMWV,268.2,T,9.6,N,A*24
1780744829	$WIMWV,268.2,T,9.6,N,A*24
1780744830	$GPRMC,112023,A,4656.3544,N,01802.2142,E,5.6,335.0,060626,5.7,E,A*11
1780744830	$GPRMC,112023,A,4656.3544,N,01802.2142,E,5.6,335.0,060626,5.7,E,A*11
1780744830	$WIMWV,267.3,T,9.9,N,A*25
1780744830	$WIMWV,267.3,T,9.9,N,A*25
1780744831	$GPRMC,112024,A,4656.3559,N,01802.2133,E,5.9,334.2,060626,5.7,E,A*10
1780744831	$GPRMC,112024,A,4656.3559,N,01802.2133,E,5.9,334.2,060626,5.7,E,A*10
1780744831	$WIMWV,266.3,T,9.4,N,A*29
1780744831	$WIMWV,266.3,T,9.4,N,A*29
1780744832	$GPRMC,112025,A,4656.3575,N,01802.2122,E,6.1,337.7,060626,5.7,E,A*12
1780744832	$GPRMC,112025,A,4656.3575,N,01802.2122,E,6.1,337.7,060626,5.7,E,A*12
1780744832	$WIMWV,261.2,T,10.0,N,A*13
1780744832	$WIMWV,261.2,T,10.0,N,A*13
1780744833	$GPRMC,112026,A,4656.3591,N,01802.2114,E,6.3,336.4,060626,5.7,E,A*1E
1780744833	$GPRMC,112026,A,4656.3591,N,01802.2114,E,6.3,336.4,060626,5.7,E,A*1E
1780744833	$WIMWV,265.9,T,10.5,N,A*19
1780744833	$WIMWV,265.9,T,10.5,N,A*19
1780744834	$GPRMC,112027,A,4656.3608,N,01802.2105,E,6.5,339.0,060626,5.7,E,A*11
1780744834	$GPRMC,112027,A,4656.3608,N,01802.2105,E,6.5,339.0,060626,5.7,E,A*11
1780744834	$WIMWV,259.5,T,12.0,N,A*1D
1780744834	$WIMWV,259.5,T,12.0,N,A*1D
1780744835	$GPRMC,112028,A,4656.3625,N,01802.2096,E,6.7,338.6,060626,5.7,E,A*1F
1780744835	$GPRMC,112028,A,4656.3625,N,01802.2096,E,6.7,338.6,060626,5.7,E,A*1F
1780744835	$WIMWV,266.4,T,10.6,N,A*14
1780744835	$WIMWV,266.4,T,10.6,N,A*14
1780744836	$GPRMC,112029,A,4656.3642,N,01802.2089,E,6.9,342.2,060626,5.7,E,A*16
1780744836	$GPRMC,112029,A,4656.3642,N,01802.2089,E,6.9,342.2,060626,5.7,E,A*16
1780744836	$WIMWV,261.2,T,11.2,N,A*10
1780744836	$WIMWV,261.2,T,11.2,N,A*10
1780744837	$GPRMC,112030,A,4656.3659,N,01802.2079,E,7.0,337.1,060626,5.7,E,A*12
1780744837	$GPRMC,112030,A,4656.3659,N,01802.2079,E,7.0,337.1,060626,5.7,E,A*12
1780744837	$WIMWV,266.2,T,9.9,N,A*25
1780744837	$WIMWV,266.2,T,9.9,N,A*25
1780744838	$GPRMC,112031,A,4656.3678,N,01802.2069,E,7.1,338.9,060626,5.7,E,A*17
1780744838	$GPRMC,112031,A,4656.3678,N,01802.2069,E,7.1,338.9,060626,5.7,E,A*17
1780744838	$WIMWV,262.1,T,11.0,N,A*12
1780744838	$WIMWV,262.1,T,11.0,N,A*12
1780744839	$GPRMC,112032,A,4656.3695,N,01802.2059,E,7.0,336.3,060626,5.7,E,A*11
1780744839	$GPRMC,112032,A,4656.3695,N,01802.2059,E,7.0,336.3,060626,5.7,E,A*11
1780744839	$WIMWV,268.5,T,11.6,N,A*1A
1780744839	$WIMWV,268.5,T,11.6,N,A*1A
1780744840	$GPRMC,112033,A,4656.3715,N,01802.2047,E,7.1,335.5,060626,5.7,E,A*12
1780744840	$GPRMC,112033,A,4656.3715,N,01802.2047,E,7.1,335.5,060626,5.7,E,A*12
1780744840	$WIMWV,266.3,T,10.5,N,A*10
1780744840	$WIMWV,266.3,T,10.5,N,A*10
1780744841	$GPRMC,112034,A,4656.3731,N,01802.2037,E,7.1,334.6,060626,5.7,E,A*16
1780744841	$GPRMC,112034,A,4656.3731,N,01802.2037,E,7.1,334.6,060626,5.7,E,A*16
1780744841	$WIMWV,265.6,T,11.2,N,A*10
1780744841	$WIMWV,265.6,T,11.2,N,A*10
1780744842	$GPRMC,112035,A,4656.3749,N,01802.2024,E,7.0,333.0,060626,5.7,E,A*1A
1780744842	$GPRMC,112035,A,4656.3749,N,01802.2024,E,7.0,333.0,060626,5.7,E,A*1A
1780744842	$WIMWV,270.0,T,9.9,N,A*20
1780744842	$WIMWV,270.0,T,9.9,N,A*20
1780744843	$GPRMC,112036,A,4656.3769,N,01802.2009,E,7.0,334.1,060626,5.7,E,A*12
1780744843	$GPRMC,112036,A,4656.3769,N,01802.2009,E,7.0,334.1,060626,5.7,E,A*12
1780744843	$WIMWV,264.4,T,10.7,N,A*17
1780744843	$WIMWV,264.4,T,10.7,N,A*17
1780744844	$GPRMC,112037,A,4656.3786,N,01802.1998,E,7.1,333.6,060626,5.7,E,A*11
1780744844	$WIMWV,268.5,T,8.8,N,A*2C
1780744844	$GPRMC,112037,A,4656.3786,N,01802.1998,E,7.1,333.6,060626,5.7,E,A*11
1780744844	$WIMWV,268.5,T,8.8,N,A*2C
1780744845	$GPRMC,112038,A,4656.3805,N,01802.1986,E,7.3,336.8,060626,5.7,E,A*1C
1780744845	$GPRMC,112038,A,4656.3805,N,01802.1986,E,7.3,336.8,060626,5.7,E,A*1C
1780744845	$WIMWV,269.2,T,11.1,N,A*1B
1780744845	$WIMWV,269.2,T,11.1,N,A*1B
1780744846	$GPRMC,112039,A,4656.3825,N,01802.1972,E,7.2,332.9,060626,5.7,E,A*10
1780744846	$WIMWV,269.9,T,10.8,N,A*18
1780744846	$GPRMC,112039,A,4656.3825,N,01802.1972,E,7.2,332.9,060626,5.7,E,A*10
1780744846	$WIMWV,269.9,T,10.8,N,A*18
1780744847	$GPRMC,112040,A,4656.3843,N,01802.1959,E,7.3,334.9,060626,5.7,E,A*10
1780744847	$WIMWV,267.5,T,12.3,N,A*13
1780744847	$GPRMC,112040,A,4656.3843,N,01802.1959,E,7.3,334.9,060626,5.7,E,A*10
1780744847	$WIMWV,267.5,T,12.3,N,A*13
1780744848	$GPRMC,112041,A,4656.3859,N,01802.1945,E,7.2,328.0,060626,5.7,E,A*12
1780744848	$GPRMC,112041,A,4656.3859,N,01802.1945,E,7.2,328.0,060626,5.7,E,A*12
1780744848	$WIMWV,275.5,T,12.0,N,A*13
1780744848	$WIMWV,275.5,T,12.0,N,A*13
1780744849	$GPRMC,112042,A,4656.3879,N,01802.1928,E,7.3,330.2,060626,5.7,E,A*12
1780744849	$GPRMC,112042,A,4656.3879,N,01802.1928,E,7.3,330.2,060626,5.7,E,A*12
1780744849	$WIMWV,272.3,T,12.0,N,A*12
1780744849	$WIMWV,272.3,T,12.0,N,A*12
1780744850	$GPRMC,112043,A,4656.3896,N,01802.1913,E,7.2,328.9,060626,5.7,E,A*19
1780744850	$GPRMC,112043,A,4656.3896,N,01802.1913,E,7.2,328.9,060626,5.7,E,A*19
1780744850	$WIMWV,273.4,T,11.5,N,A*12
1780744850	$WIMWV,273.4,T,11.5,N,A*12
1780744851	$GPRMC,112044,A,4656.3913,N,01802.1898,E,7.1,330.9,060626,5.7,E,A*1A
1780744851	$GPRMC,112044,A,4656.3913,N,01802.1898,E,7.1,330.9,060626,5.7,E,A*1A
1780744851	$WIMWV,273.6,T,10.9,N,A*1D
1780744851	$WIMWV,273.6,T,10.9,N,A*1D
1780744852	$GPRMC,112045,A,4656.3930,N,01802.1884,E,7.1,327.5,060626,5.7,E,A*1D
1780744852	$GPRMC,112045,A,4656.3930,N,01802.1884,E,7.1,327.5,060626,5.7,E,A*1D
1780744852	$WIMWV,271.4,T,10.4,N,A*10
1780744852	$WIMWV,271.4,T,10.4,N,A*10
1780744853	$GPRMC,112046,A,4656.3947,N,01802.1871,E,7.1,330.4,060626,5.7,E,A*13
1780744853	$GPRMC,112046,A,4656.3947,N,01802.1871,E,7.1,330.4,060626,5.7,E,A*13
1780744853	$WIMWV,277.5,T,11.6,N,A*14
1780744853	$WIMWV,277.5,T,11.6,N,A*14
1780744854	$GPRMC,112047,A,4656.3963,N,01802.1856,E,7.0,325.4,060626,5.7,E,A*14
1780744854	$GPRMC,112047,A,4656.3963,N,01802.1856,E,7.0,325.4,060626,5.7,E,A*14
1780744854	$WIMWV,282.9,T,10.8,N,A*1D
1780744854	$WIMWV,282.9,T,10.8,N,A*1D
1780744855	$GPRMC,112048,A,4656.3978,N,01802.1837,E,7.0,324.3,060626,5.7,E,A*10
1780744855	$GPRMC,112048,A,4656.3978,N,01802.1837,E,7.0,324.3,060626,5.7,E,A*10
1780744855	$WIMWV,278.5,T,11.7,N,A*1A
1780744855	$WIMWV,278.5,T,11.7,N,A*1A
1780744856	$GPRMC,112049,A,4656.3991,N,01802.1820,E,6.6,325.7,060626,5.7,E,A*12
1780744856	$GPRMC,112049,A,4656.3991,N,01802.1820,E,6.6,325.7,060626,5.7,E,A*12
1780744856	$WIMWV,276.5,T,11.7,N,A*14
1780744856	$WIMWV,276.5,T,11.7,N,A*14
1780744857	$GPRMC,112050,A,4656.4007,N,01802.1803,E,6.6,325.9,060626,5.7,E,A*14
1780744857	$GPRMC,112050,A,4656.4007,N,01802.1803,E,6.6,325.9,060626,5.7,E,A*14
1780744857	$WIMWV,278.8,T,9.9,N,A*20
1780744857	$WIMWV,278.8,T,9.9,N,A*20
1780744858	$GPRMC,112051,A,4656.4023,N,01802.1790,E,6.6,331.0,060626,5.7,E,A*1A
1780744858	$GPRMC,112051,A,4656.4023,N,01802.1790,E,6.6,331.0,060626,5.7,E,A*1A
1780744858	$WIMWV,270.3,T,11.0,N,A*13
1780744858	$WIMWV,270.3,T,11.0,N,A*13
1780744859	$GPRMC,112052,A,4656.4041,N,01802.1777,E,6.6,330.5,060626,5.7,E,A*10
1780744859	$GPRMC,112052,A,4656.4041,N,01802.1777,E,6.6,330.5,060626,5.7,E,A*10
1780744859	$WIMWV,275.5,T,9.8,N,A*21
1780744859	$WIMWV,275.5,T,9.8,N,A*21
1780744860	$GPRMC,112053,A,4656.4058,N,01802.1764,E,6.8,333.6,060626,5.7,E,A*15
1780744860	$GPRMC,112053,A,4656.4058,N,01802.1764,E,6.8,333.6,060626,5.7,E,A*15
1780744862	$WIMWV,272.5,T,10.7,N,A*11
1780744862	$GPRMC,112054,A,4656.4074,N,01802.1752,E,6.7,330.6,060626,5.7,E,A*15
1780744863	$WIMWV,273.6,T,12.2,N,A*14
1780744863	$GPRMC,112055,A,4656.4088,N,01802.1741,E,6.8,328.7,060626,5.7,E,A*12
1780744863	$WIMWV,271.6,T,10.7,N,A*11
1780744863	$GPRMC,112056,A,4656.4106,N,01802.1727,E,6.8,331.2,060626,5.7,E,A*1B
1780744863	$WIMWV,274.8,T,11.6,N,A*1A
1780744864	$GPRMC,112057,A,4656.4124,N,01802.1713,E,6.9,328.3,060626,5.7,E,A*15
1780744864	$WIMWV,273.6,T,10.6,N,A*12
1780744865	$GPRMC,112058,A,4656.4144,N,01802.1699,E,7.0,330.1,060626,5.7,E,A*1C
1780744865	$WIMWV,272.7,T,11.7,N,A*12
1780744866	$GPRMC,112059,A,4656.4160,N,01802.1683,E,7.0,328.5,060626,5.7,E,A*1D
1780744866	$WIMWV,275.8,T,10.3,N,A*1F
1780744867	$GPRMC,112100,A,4656.4176,N,01802.1669,E,7.2,331.5,060626,5.7,E,A*19
1780744867	$WIMWV,274.5,T,11.8,N,A*19
1780744868	$GPRMC,112101,A,4656.4193,N,01802.1652,E,7.1,327.5,060626,5.7,E,A*1F
1780744868	$WIMWV,273.9,T,11.3,N,A*19
1780744869	$GPRMC,112102,A,4656.4210,N,01802.1635,E,7.2,330.9,060626,5.7,E,A*1C
1780744869	$WIMWV,269.4,T,11.3,N,A*1F
1780744870	$GPRMC,112103,A,4656.4228,N,01802.1618,E,7.2,325.7,060626,5.7,E,A*13
1780744870	$WIMWV,271.8,T,11.7,N,A*1E
1780744871	$GPRMC,112104,A,4656.4245,N,01802.1605,E,7.1,329.1,060626,5.7,E,A*1A
1780744871	$WIMWV,268.7,T,10.1,N,A*1E
1780744872	$GPRMC,112105,A,4656.4261,N,01802.1591,E,7.1,330.1,060626,5.7,E,A*1B
1780744875	$WIMWV,269.9,T,10.5,N,A*15
1780744875	$GPRMC,112106,A,4656.4278,N,01802.1575,E,7.1,329.6,060626,5.7,E,A*15
1780744875	$WIMWV,267.6,T,11.4,N,A*14
1780744875	$GPRMC,112107,A,4656.4295,N,01802.1560,E,7.1,330.4,060626,5.7,E,A*19
1780744875	$WIMWV,265.8,T,9.5,N,A*20
1780744875	$GPRMC,112108,A,4656.4313,N,01802.1549,E,7.2,335.8,060626,5.7,E,A*18
1780744875	$WIMWV,267.7,T,11.6,N,A*17
1780744876	$GPRMC,112109,A,4656.4330,N,01802.1536,E,7.2,332.0,060626,5.7,E,A*1F
1780744876	$WIMWV,268.5,T,9.8,N,A*2D
1780744877	$GPRMC,112110,A,4656.4349,N,01802.1526,E,7.5,337.2,060626,5.7,E,A*18
1780744877	$WIMWV,262.8,T,10.8,N,A*12
1780744878	$GPRMC,112111,A,4656.4368,N,01802.1510,E,7.4,335.3,060626,5.7,E,A*1D
1780744878	$WIMWV,265.8,T,10.0,N,A*1D
1780744879	$GPRMC,112112,A,4656.4388,N,01802.1497,E,7.6,335.3,060626,5.7,E,A*1C
1780744879	$WIMWV,267.4,T,10.2,N,A*11
1780744880	$GPRMC,112113,A,4656.4406,N,01802.1486,E,7.6,335.7,060626,5.7,E,A*18
1780744880	$WIMWV,264.2,T,11.5,N,A*12
1780744881	$GPRMC,112114,A,4656.4425,N,01802.1473,E,7.6,336.8,060626,5.7,E,A*18
1780744881	$WIMWV,266.4,T,10.3,N,A*11
1780744882	$GPRMC,112115,A,4656.4445,N,01802.1464,E,7.8,336.1,060626,5.7,E,A*1E
1780744885	$WIMWV,268.2,T,12.7,N,A*1F
1780744885	$GPRMC,112116,A,4656.4465,N,01802.1451,E,7.8,332.3,060626,5.7,E,A*1F
1780744885	$WIMWV,272.6,T,11.3,N,A*17
1780744885	$GPRMC,112117,A,4656.4483,N,01802.1437,E,7.9,333.5,060626,5.7,E,A*10
1780744885	$WIMWV,271.2,T,11.5,N,A*16
1780744885	$GPRMC,112118,A,4656.4503,N,01802.1422,E,7.9,330.8,060626,5.7,E,A*1C
1780744886	$WIMWV,274.2,T,11.9,N,A*1F
1780744888	$WIMWV,274.2,T,11.9,N,A*1F
1780744888	$GPRMC,112119,A,4656.4522,N,01802.1406,E,7.8,328.7,060626,5.7,E,A*1F
1780744888	$WIMWV,276.1,T,11.5,N,A*12
1780744888	$GPRMC,112120,A,4656.4539,N,01802.1390,E,7.8,327.1,060626,5.7,E,A*1E
1780744888	$WIMWV,279.2,T,11.1,N,A*1A
1780744888	$GPRMC,112121,A,4656.4557,N,01802.1373,E,7.8,325.6,060626,5.7,E,A*1F
1780744888	$GPRMC,112119,A,4656.4522,N,01802.1406,E,7.8,328.7,060626,5.7,E,A*1F
1780744888	$WIMWV,276.1,T,11.5,N,A*12
1780744888	$GPRMC,112120,A,4656.4539,N,01802.1390,E,7.8,327.1,060626,5.7,E,A*1E
1780744888	$WIMWV,279.2,T,11.1,N,A*1A
1780744888	$GPRMC,112121,A,4656.4557,N,01802.1373,E,7.8,325.6,060626,5.7,E,A*1F
1780744888	$WIMWV,279.5,T,10.7,N,A*1A
1780744888	$WIMWV,279.5,T,10.7,N,A*1A
1780744889	$GPRMC,112122,A,4656.4574,N,01802.1356,E,7.6,324.6,060626,5.7,E,A*15
1780744889	$GPRMC,112122,A,4656.4574,N,01802.1356,E,7.6,324.6,060626,5.7,E,A*15
1780744889	$WIMWV,282.0,T,10.9,N,A*15
1780744889	$WIMWV,282.0,T,10.9,N,A*15
1780744890	$GPRMC,112123,A,4656.4590,N,01802.1337,E,7.5,322.3,060626,5.7,E,A*19
1780744890	$GPRMC,112123,A,4656.4590,N,01802.1337,E,7.5,322.3,060626,5.7,E,A*19
1780744890	$WIMWV,285.2,T,11.8,N,A*10
1780744890	$WIMWV,285.2,T,11.8,N,A*10
1780744891	$GPRMC,112124,A,4656.4606,N,01802.1318,E,7.4,320.5,060626,5.7,E,A*1A
1780744891	$GPRMC,112124,A,4656.4606,N,01802.1318,E,7.4,320.5,060626,5.7,E,A*1A
1780744891	$WIMWV,287.9,T,10.3,N,A*13
1780744891	$WIMWV,287.9,T,10.3,N,A*13
1780744892	$GPRMC,112125,A,4656.4623,N,01802.1297,E,7.6,319.7,060626,5.7,E,A*10
1780744892	$GPRMC,112125,A,4656.4623,N,01802.1297,E,7.6,319.7,060626,5.7,E,A*10
1780744892	$WIMWV,289.2,T,11.7,N,A*13
1780744892	$WIMWV,289.2,T,11.7,N,A*13
1780744893	$GPRMC,112126,A,4656.4637,N,01802.1275,E,7.3,315.1,060626,5.7,E,A*15
1780744893	$GPRMC,112126,A,4656.4637,N,01802.1275,E,7.3,315.1,060626,5.7,E,A*15
1780744893	$WIMWV,286.7,T,11.6,N,A*18
1780744893	$WIMWV,286.7,T,11.6,N,A*18
1780744894	$GPRMC,112127,A,4656.4654,N,01802.1253,E,7.4,318.3,060626,5.7,E,A*1D
1780744894	$GPRMC,112127,A,4656.4654,N,01802.1253,E,7.4,318.3,060626,5.7,E,A*1D
1780744894	$WIMWV,283.3,T,9.9,N,A*2F
1780744894	$WIMWV,283.3,T,9.9,N,A*2F
1780744895	$GPRMC,112128,A,4656.4671,N,01802.1235,E,7.3,316.4,060626,5.7,E,A*1B
1780744895	$GPRMC,112128,A,4656.4671,N,01802.1235,E,7.3,316.4,060626,5.7,E,A*1B
1780744897	$WIMWV,291.4,T,10.3,N,A*19
1780744897	$GPRMC,112129,A,4656.4685,N,01802.1214,E,7.5,318.3,060626,5.7,E,A*1D
1780744897	$WIMWV,284.7,T,9.5,N,A*20
1780744898	$GPRMC,112130,A,4656.4699,N,01802.1196,E,7.2,316.5,060626,5.7,E,A*1E
1780744898	$WIMWV,286.9,T,10.8,N,A*19
1780744898	$GPRMC,112131,A,4656.4715,N,01802.1176,E,7.2,314.6,060626,5.7,E,A*15
1780744898	$WIMWV,289.2,T,10.5,N,A*10
1780744899	$GPRMC,112132,A,4656.4728,N,01802.1156,E,7.3,311.7,060626,5.7,E,A*1F
1780744899	$WIMWV,290.2,T,8.6,N,A*22
1780744900	$GPRMC,112133,A,4656.4742,N,01802.1137,E,7.2,315.9,060626,5.7,E,A*1E
1780744900	$WIMWV,287.4,T,10.9,N,A*14
1780744901	$GPRMC,112134,A,4656.4754,N,01802.1118,E,6.9,312.8,060626,5.7,E,A*1F
1780744901	$WIMWV,290.9,T,9.4,N,A*2A
1780744902	$GPRMC,112135,A,4656.4767,N,01802.1098,E,7.1,316.2,060626,5.7,E,A*10
1780744902	$WIMWV,281.5,T,10.2,N,A*18
1780744903	$GPRMC,112136,A,4656.4780,N,01802.1077,E,6.8,316.1,060626,5.7,E,A*10
1780744903	$WIMWV,292.8,T,10.7,N,A*12
1780744904	$GPRMC,112137,A,4656.4794,N,01802.1058,E,7.0,315.0,060626,5.7,E,A*12
1780744904	$WIMWV,296.5,T,8.4,N,A*21
1780744905	$GPRMC,112138,A,4656.4808,N,01802.1038,E,7.3,316.6,060626,5.7,E,A*17
1780744905	$WIMWV,294.4,T,9.7,N,A*20
1780744906	$GPRMC,112139,A,4656.4822,N,01802.1018,E,7.1,313.5,060626,5.7,E,A*18
1780744906	$WIMWV,292.5,T,10.3,N,A*1B
1780744907	$GPRMC,112140,A,4656.4837,N,01802.1000,E,7.2,314.1,060626,5.7,E,A*1B
1780744907	$WIMWV,290.6,T,10.5,N,A*1C
1780744908	$GPRMC,112141,A,4656.4851,N,01802.0983,E,7.3,315.0,060626,5.7,E,A*18
1780744908	$WIMWV,296.8,T,9.7,N,A*2E
1780744909	$GPRMC,112142,A,4656.4869,N,01802.0962,E,7.6,318.8,060626,5.7,E,A*1F
1780744909	$WIMWV,289.5,T,10.6,N,A*14
1780744910	$GPRMC,112143,A,4656.4884,N,01802.0941,E,7.4,316.8,060626,5.7,E,A*10
1780744910	$WIMWV,296.8,T,10.8,N,A*19
1780744911	$GPRMC,112144,A,4656.4899,N,01802.0919,E,7.5,313.3,060626,5.7,E,A*19
1780744911	$WIMWV,295.9,T,10.5,N,A*16
1780744912	$GPRMC,112145,A,4656.4913,N,01802.0897,E,7.5,314.1,060626,5.7,E,A*19
1780744912	$WIMWV,292.3,T,10.8,N,A*16
1780744912	$WIMWV,292.3,T,10.8,N,A*16
1780744913	$GPRMC,112146,A,4656.4927,N,01802.0877,E,7.5,314.5,060626,5.7,E,A*17
1780744913	$WIMWV,282.4,T,11.7,N,A*1E
1780744913	$GPRMC,112146,A,4656.4927,N,01802.0877,E,7.5,314.5,060626,5.7,E,A*17
1780744913	$WIMWV,282.4,T,11.7,N,A*1E
1780744914	$GPRMC,112147,A,4656.4942,N,01802.0853,E,7.3,314.9,060626,5.7,E,A*19
1780744914	$WIMWV,287.0,T,11.8,N,A*10
1780744915	$GPRMC,112148,A,4656.4957,N,01802.0833,E,7.6,316.6,060626,5.7,E,A*1C
1780744915	$WIMWV,288.5,T,9.4,N,A*2F
1780744915	$GPRMC,112148,A,4656.4957,N,01802.0833,E,7.6,316.6,060626,5.7,E,A*1C
1780744915	$WIMWV,288.5,T,9.4,N,A*2F
1780744916	$GPRMC,112149,A,4656.4974,N,01802.0814,E,7.6,321.0,060626,5.7,E,A*1B
1780744916	$WIMWV,290.6,T,11.9,N,A*11
1780744917	$GPRMC,112150,A,4656.4991,N,01802.0792,E,7.7,315.0,060626,5.7,E,A*1F
1780744917	$WIMWV,298.6,T,9.9,N,A*20
1780744918	$GPRMC,112151,A,4656.5007,N,01802.0773,E,7.9,319.6,060626,5.7,E,A*12
1780744918	$WIMWV,290.3,T,11.2,N,A*1F
1780744919	$GPRMC,112152,A,4656.5022,N,01802.0751,E,7.4,314.6,060626,5.7,E,A*16
1780744919	$WIMWV,300.0,T,10.3,N,A*14
1780744920	$GPRMC,112153,A,4656.5038,N,01802.0725,E,7.6,314.6,060626,5.7,E,A*1D
1780744920	$WIMWV,292.2,T,11.0,N,A*1E
1780744921	$GPRMC,112154,A,4656.5053,N,01802.0705,E,7.5,314.3,060626,5.7,E,A*13
1780744921	$WIMWV,295.4,T,11.6,N,A*19
1780744922	$GPRMC,112155,A,4656.5069,N,01802.0683,E,7.6,312.5,060626,5.7,E,A*17
1780744922	$WIMWV,300.1,T,9.4,N,A*2A
1780744923	$GPRMC,112156,A,4656.5084,N,01802.0663,E,7.7,314.4,060626,5.7,E,A*1F
1780744923	$WIMWV,290.0,T,9.3,N,A*24
1780744924	$GPRMC,112157,A,4656.5099,N,01802.0641,E,7.6,313.9,060626,5.7,E,A*19
1780744924	$WIMWV,288.0,T,10.1,N,A*17
1780744925	$GPRMC,112158,A,4656.5114,N,01802.0618,E,7.6,315.9,060626,5.7,E,A*18
1780744925	$WIMWV,291.9,T,9.9,N,A*26
1780744926	$GPRMC,112159,A,4656.5126,N,01802.0602,E,7.7,315.5,060626,5.7,E,A*1E
1780744926	$WIMWV,293.0,T,9.5,N,A*21
1780744927	$GPRMC,112200,A,4656.5145,N,01802.0578,E,7.8,319.0,060626,5.7,E,A*1C
1780744927	$WIMWV,294.1,T,10.8,N,A*12
1780744928	$GPRMC,112201,A,4656.5162,N,01802.0556,E,7.9,317.3,060626,5.7,E,A*18
1780744928	$WIMWV,295.4,T,11.1,N,A*1E
1780744929	$GPRMC,112202,A,4656.5177,N,01802.0533,E,8.0,315.0,060626,5.7,E,A*1B
1780744929	$WIMWV,295.4,T,10.5,N,A*1B
1780744930	$GPRMC,112203,A,4656.5191,N,01802.0512,E,7.8,314.6,060626,5.7,E,A*11
1780744930	$WIMWV,295.8,T,10.1,N,A*13
1780744931	$GPRMC,112204,A,4656.5210,N,01802.0488,E,7.8,314.7,060626,5.7,E,A*1F
1780744932	$WIMWV,291.6,T,9.8,N,A*28
1780744933	$GPRMC,112205,A,4656.5228,N,01802.0465,E,7.8,315.9,060626,5.7,E,A*19
1780744933	$WIMWV,297.3,T,10.2,N,A*19
1780744933	$GPRMC,112206,A,4656.5245,N,01802.0440,E,8.1,316.4,060626,5.7,E,A*1E
1780744933	$WIMWV,298.1,T,9.6,N,A*28
1780744934	$GPRMC,112207,A,4656.5261,N,01802.0418,E,8.2,316.2,060626,5.7,E,A*11
1780744935	$WIMWV,299.3,T,9.8,N,A*25
1780744935	$GPRMC,112208,A,4656.5276,N,01802.0393,E,7.9,313.2,060626,5.7,E,A*1D
1780744936	$WIMWV,296.8,T,10.2,N,A*13
1780744936	$GPRMC,112209,A,4656.5289,N,01802.0372,E,8.1,312.9,060626,5.7,E,A*1E
1780744938	$WIMWV,292.2,T,10.2,N,A*1D
1780744938	$GPRMC,112210,A,4656.5306,N,01802.0346,E,7.7,311.1,060626,5.7,E,A*15
1780744938	$WIMWV,289.8,T,11.4,N,A*1A
1780744938	$GPRMC,112211,A,4656.5321,N,01802.0323,E,8.0,311.0,060626,5.7,E,A*1B
1780744940	$WIMWV,291.4,T,11.0,N,A*1B
1780744940	$GPRMC,112212,A,4656.5333,N,01802.0300,E,8.0,312.7,060626,5.7,E,A*1E
1780744940	$WIMWV,292.4,T,10.0,N,A*19
1780744940	$GPRMC,112213,A,4656.5351,N,01802.0277,E,8.0,317.2,060626,5.7,E,A*1A
1780744941	$WIMWV,292.8,T,10.5,N,A*10
1780744941	$GPRMC,112214,A,4656.5368,N,01802.0251,E,8.0,314.9,060626,5.7,E,A*1B
1780744942	$WIMWV,295.0,T,9.3,N,A*21
1780744942	$GPRMC,112215,A,4656.5384,N,01802.0229,E,8.1,316.0,060626,5.7,E,A*1D
1780744943	$WIMWV,292.8,T,10.3,N,A*16
1780744943	$GPRMC,112216,A,4656.5401,N,01802.0206,E,8.0,314.3,060626,5.7,E,A*19
1780744943	$GPRMC,112216,A,4656.5401,N,01802.0206,E,8.0,314.3,060626,5.7,E,A*19
1780744944	$WIMWV,295.8,T,10.7,N,A*15
1780744944	$GPRMC,112217,A,4656.5416,N,01802.0181,E,8.0,312.7,060626,5.7,E,A*10
1780744944	$WIMWV,293.8,T,10.2,N,A*16
1780744945	$GPRMC,112218,A,4656.5432,N,01802.0158,E,8.1,314.6,060626,5.7,E,A*1B
1780744947	$WIMWV,293.2,T,9.9,N,A*2F
1780744947	$GPRMC,112219,A,4656.5449,N,01802.0135,E,8.2,314.1,060626,5.7,E,A*19
1780744947	$WIMWV,295.7,T,10.8,N,A*15
1780744947	$GPRMC,112220,A,4656.5465,N,01802.0112,E,8.1,313.4,060626,5.7,E,A*19
1780744948	$WIMWV,293.7,T,11.6,N,A*1C
1780744948	$GPRMC,112221,A,4656.5479,N,01802.0091,E,8.1,311.5,060626,5.7,E,A*1C
1780744950	$WIMWV,295.6,T,11.9,N,A*14
1780744950	$GPRMC,112222,A,4656.5496,N,01802.0064,E,8.1,310.0,060626,5.7,E,A*10
1780744950	$WIMWV,293.8,T,11.7,N,A*12
1780744950	$GPRMC,112223,A,4656.5509,N,01802.0040,E,7.9,309.0,060626,5.7,E,A*1F
1780744950	$WIMWV,301.0,T,10.9,N,A*1F
1780744951	$GPRMC,112224,A,4656.5522,N,01802.0014,E,8.0,307.5,060626,5.7,E,A*1D
1780744952	$WIMWV,306.4,T,9.4,N,A*29
1780744952	$GPRMC,112225,A,4656.5536,N,01801.9991,E,7.9,307.1,060626,5.7,E,A*15
1780744953	$WIMWV,301.1,T,10.8,N,A*1F
1780744953	$GPRMC,112226,A,4656.5548,N,01801.9963,E,7.7,302.8,060626,5.7,E,A*10
1780744954	$WIMWV,302.8,T,12.4,N,A*1B
1780744954	$GPRMC,112227,A,4656.5557,N,01801.9940,E,7.7,299.2,060626,5.7,E,A*17
1780744954	$WIMWV,301.2,T,11.3,N,A*16
1780744955	$GPRMC,112228,A,4656.5569,N,01801.9911,E,7.5,299.3,060626,5.7,E,A*12
1780744955	$WIMWV,303.9,T,10.4,N,A*19
1780744956	$GPRMC,112229,A,4656.5578,N,01801.9889,E,7.4,301.4,060626,5.7,E,A*15
1780744957	$WIMWV,303.2,T,9.8,N,A*26
1780744957	$GPRMC,112230,A,4656.5588,N,01801.9865,E,7.3,302.9,060626,5.7,E,A*19
1780744958	$WIMWV,304.0,T,10.9,N,A*1A
1780744958	$GPRMC,112231,A,4656.5599,N,01801.9841,E,7.3,301.5,060626,5.7,E,A*11
1780744958	$WIMWV,303.9,T,11.0,N,A*1C
1780744959	$GPRMC,112232,A,4656.5609,N,01801.9815,E,7.4,300.6,060626,5.7,E,A*1C
1780744961	$WIMWV,303.5,T,11.8,N,A*18
1780744961	$GPRMC,112233,A,4656.5619,N,01801.9789,E,7.3,297.3,060626,5.7,E,A*1B
1780744961	$WIMWV,306.5,T,10.4,N,A*10
1780744961	$GPRMC,112234,A,4656.5629,N,01801.9763,E,7.2,298.3,060626,5.7,E,A*15
1780744962	$WIMWV,308.6,T,10.7,N,A*1E
1780744962	$GPRMC,112235,A,4656.5638,N,01801.9736,E,7.1,297.6,060626,5.7,E,A*1D
1780744964	$WIMWV,310.1,T,10.2,N,A*15
1780744964	$GPRMC,112236,A,4656.5646,N,01801.9708,E,7.2,299.3,060626,5.7,E,A*12
1780744964	$WIMWV,313.2,T,11.3,N,A*15
1780744964	$GPRMC,112237,A,4656.5654,N,01801.9683,E,7.2,297.1,060626,5.7,E,A*1E
1780744965	$WIMWV,311.2,T,9.6,N,A*2B
1780744965	$GPRMC,112238,A,4656.5665,N,01801.9656,E,7.2,303.7,060626,5.7,E,A*11
1780744966	$WIMWV,308.4,T,9.7,N,A*24
1780744966	$GPRMC,112239,A,4656.5674,N,01801.9631,E,7.3,299.6,060626,5.7,E,A*13
1780744967	$WIMWV,309.2,T,11.7,N,A*1A
1780744967	$GPRMC,112240,A,4656.5683,N,01801.9605,E,7.1,296.9,060626,5.7,E,A*10
1780744968	$WIMWV,309.5,T,11.1,N,A*1B
1780744968	$GPRMC,112241,A,4656.5692,N,01801.9577,E,7.2,294.9,060626,5.7,E,A*16
1780744969	$WIMWV,302.9,T,10.9,N,A*15
1780744969	$GPRMC,112242,A,4656.5700,N,01801.9549,E,7.0,292.9,060626,5.7,E,A*16
1780744970	$WIMWV,308.5,T,11.1,N,A*1A
1780744970	$GPRMC,112243,A,4656.5708,N,01801.9523,E,7.0,292.7,060626,5.7,E,A*1D
1780744971	$WIMWV,308.5,T,11.2,N,A*19
1780744971	$GPRMC,112244,A,4656.5717,N,01801.9497,E,7.0,292.2,060626,5.7,E,A*1F
1780744971	$WIMWV,312.5,T,11.3,N,A*13
1780744972	$GPRMC,112245,A,4656.5725,N,01801.9471,E,6.9,292.3,060626,5.7,E,A*1E
1780744972	$WIMWV,310.7,T,11.4,N,A*14
1780744973	$GPRMC,112246,A,4656.5732,N,01801.9446,E,6.8,288.3,060626,5.7,E,A*15
1780744975	$WIMWV,309.9,T,11.6,N,A*10
1780744975	$GPRMC,112247,A,4656.5739,N,01801.9423,E,6.7,287.9,060626,5.7,E,A*16
1780744975	$WIMWV,310.3,T,11.5,N,A*11
1780744975	$GPRMC,112248,A,4656.5745,N,01801.9399,E,6.5,290.0,060626,5.7,E,A*19
1780744976	$WIMWV,313.7,T,10.2,N,A*10
1780744976	$GPRMC,112249,A,4656.5753,N,01801.9375,E,6.5,294.7,060626,5.7,E,A*1E
1780744977	$WIMWV,316.3,T,9.4,N,A*2F
1780744977	$GPRMC,112250,A,4656.5760,N,01801.9352,E,6.5,296.8,060626,5.7,E,A*1E
1780744978	$WIMWV,316.2,T,10.5,N,A*17
1780744978	$GPRMC,112251,A,4656.5769,N,01801.9329,E,6.4,296.1,060626,5.7,E,A*12
1780744979	$WIMWV,318.8,T,9.4,N,A*2A
1780744979	$GPRMC,112252,A,4656.5777,N,01801.9304,E,6.5,295.9,060626,5.7,E,A*1B
1780744980	$WIMWV,315.5,T,10.4,N,A*12
1780744980	$GPRMC,112253,A,4656.5785,N,01801.9277,E,6.5,293.2,060626,5.7,E,A*1F
1780744981	$WIMWV,312.3,T,10.4,N,A*13
1780744981	$GPRMC,112254,A,4656.5790,N,01801.9254,E,6.5,293.7,060626,5.7,E,A*18
1780744981	$WIMWV,312.4,T,10.1,N,A*11
1780744983	$GPRMC,112255,A,4656.5798,N,01801.9227,E,6.5,292.7,060626,5.7,E,A*14
1780744983	$WIMWV,315.9,T,11.5,N,A*1E
1780744983	$GPRMC,112256,A,4656.5804,N,01801.9201,E,6.5,290.7,060626,5.7,E,A*1B
1780744984	$WIMWV,312.8,T,12.2,N,A*1C
1780744984	$GPRMC,112257,A,4656.5809,N,01801.9180,E,6.4,289.9,060626,5.7,E,A*1A
1780744985	$WIMWV,306.9,T,12.6,N,A*1C
1780744985	$GPRMC,112258,A,4656.5816,N,01801.9155,E,6.2,289.6,060626,5.7,E,A*1A
1780744986	$WIMWV,312.3,T,12.0,N,A*15
1780744986	$GPRMC,112259,A,4656.5822,N,01801.9134,E,6.3,291.3,060626,5.7,E,A*16
1780744987	$WIMWV,309.4,T,11.1,N,A*1A
1780744987	$GPRMC,112300,A,4656.5830,N,01801.9110,E,6.3,295.6,060626,5.7,E,A*1F
1780744988	$WIMWV,305.7,T,12.4,N,A*13
1780744988	$GPRMC,112301,A,4656.5837,N,01801.9087,E,6.2,294.3,060626,5.7,E,A*13
1780744989	$WIMWV,312.8,T,10.5,N,A*19
1780744989	$GPRMC,112302,A,4656.5845,N,01801.9062,E,6.2,297.0,060626,5.7,E,A*1E
1780744990	$WIMWV,307.0,T,11.1,N,A*10
1780744990	$GPRMC,112303,A,4656.5853,N,01801.9041,E,6.2,296.0,060626,5.7,E,A*18
1780744991	$WIMWV,310.3,T,11.8,N,A*1C
1780744992	$GPRMC,112304,A,4656.5862,N,01801.9017,E,6.3,295.1,060626,5.7,E,A*1D
1780744992	$WIMWV,311.2,T,10.7,N,A*12
1780744992	$GPRMC,112305,A,4656.5870,N,01801.8990,E,6.4,296.4,060626,5.7,E,A*19
1780744993	$WIMWV,310.2,T,11.1,N,A*14
1780744993	$GPRMC,112306,A,4656.5878,N,01801.8968,E,6.3,297.0,060626,5.7,E,A*17
1780744995	$WIMWV,311.8,T,11.5,N,A*1B
1780744995	$GPRMC,112307,A,4656.5885,N,01801.8945,E,6.4,296.3,060626,5.7,E,A*1E
1780744995	$WIMWV,307.9,T,12.0,N,A*1B
1780744995	$GPRMC,112308,A,4656.5892,N,01801.8923,E,6.4,294.9,060626,5.7,E,A*1F
1780744996	$WIMWV,306.0,T,12.3,N,A*10
1780744996	$GPRMC,112309,A,4656.5899,N,01801.8899,E,6.3,292.7,060626,5.7,E,A*1A
1780744997	$WIMWV,311.7,T,11.7,N,A*16
1780744997	$GPRMC,112310,A,4656.5908,N,01801.8876,E,6.3,295.5,060626,5.7,E,A*1F
1780744998	$WIMWV,315.6,T,11.7,N,A*13
1780744998	$GPRMC,112311,A,4656.5915,N,01801.8854,E,6.3,296.1,060626,5.7,E,A*15
1780745000	$WIMWV,314.9,T,10.8,N,A*13
1780745000	$GPRMC,112312,A,4656.5923,N,01801.8830,E,6.4,296.0,060626,5.7,E,A*17
1780745000	$WIMWV,314.2,T,11.5,N,A*14
1780745000	$GPRMC,112313,A,4656.5930,N,01801.8806,E,6.3,295.4,060626,5.7,E,A*11
1780745001	$WIMWV,310.1,T,11.3,N,A*15
1780745001	$GPRMC,112314,A,4656.5936,N,01801.8783,E,6.3,293.9,060626,5.7,E,A*19
1780745002	$WIMWV,307.4,T,11.5,N,A*10
1780745002	$GPRMC,112315,A,4656.5944,N,01801.8760,E,6.3,294.0,060626,5.7,E,A*1E
1780745003	$WIMWV,310.1,T,10.6,N,A*11
1780745003	$GPRMC,112316,A,4656.5952,N,01801.8737,E,6.5,296.2,060626,5.7,E,A*1E
1780745004	$WIMWV,309.3,T,9.5,N,A*20
1780745004	$GPRMC,112317,A,4656.5960,N,01801.8713,E,6.6,294.7,060626,5.7,E,A*1C
1780745005	$WIMWV,305.8,T,11.6,N,A*1D
1780745005	$GPRMC,112318,A,4656.5967,N,01801.8688,E,6.4,289.4,060626,5.7,E,A*1A
1780745006	$WIMWV,310.7,T,9.8,N,A*21
